Episode_number,yaw,pitch,roll,max_x,max_y,height,max_time,total_reward,steps,explore,exploit
0,0,0,0,0,0,0,0,0,0,0,0
1,1.9074711461816236,1.5707963267948966,2.993925960086125,1.3933802247047424,1.8734406232833862,3.1999999999999993,0,-267.59999999999985,548,432,117
2,1.8157749899217608,0.060036058445278366,3.054628360590321,3.6882128715515137,2.7479310035705566,3.499999999999999,0,30.699999999999996,1000,658,342
3,3.141592653589793,1.5707963267948966,2.936197264400026,2.3283584117889404,5.356614589691162,6.1999999999999975,0.20004796981811523,28.2,727,525,202
4,1.9974238199217726,1.5707963267948966,2.8911792613620935,4.2840306758880615,1.3008348047733307,2.3,0,-194.0,252,221,32
5,0.8519663271732723,1.5707963267948966,1.9347752833045404,1.4420131742954254,0.9886271245777607,3.1999999999999993,0,-344.8,133,128,6
6,1.811914005246365,1.5707963267948966,2.93603293486601,2.7659854888916016,3.7462944984436035,4.999999999999998,0,38.3,1000,685,315
7,3.0810606338076902,1.5707963267948966,3.0822362303456865,4.437083959579468,2.857531189918518,3.499999999999999,0,29.099999999999994,1000,641,359
8,1.9614033704925833,1.5707963267948966,1.954816392890606,3.562267303466797,1.5905979201197624,3.1999999999999993,0,-540.4,216,198,19
9,3.010931081243609,1.5707963267948966,3.0519496159862487,6.8219451904296875,3.6469223499298096,5.299999999999998,0,53.499999999999986,1000,665,335
10,2.053309621817373,1.5707963267948966,3.1371232098544364,3.4579955339431763,3.2811163663864136,2.8999999999999995,0,-282.8,586,448,139
11,2.0091328866528544,1.5707963267948966,2.671300624098297,1.8280221223831177,2.0956685543060303,6.1999999999999975,0.21036601066589355,30.299999999999994,305,263,42
12,0.28123220191829523,0.2837941092083278,0.20131710837464076,0.9404394924640656,2.121517777442932,6.499999999999997,0.21533799171447754,15.600000000000001,120,115,5
13,2.1180807077823336,0.1809864512465477,1.7648158022400446,2.0006526708602905,3.3826555013656616,6.499999999999997,0.2032451629638672,11.0,148,136,12
14,1.5707963267948966,1.5707963267948966,1.8325098291961015,2.7998948097229004,2.891930341720581,6.499999999999997,0.14885902404785156,11.5,160,151,9
15,1.9393558410195313,1.5707963267948966,1.5127969335869436,2.955899715423584,0.7726823687553406,6.1999999999999975,0.21268415451049805,17.5,149,141,8
16,1.4447082317303062,0.28379410920832787,0.8826513616490143,2.1542385816574097,1.8801632523536682,6.499999999999997,0.21978282928466797,23.999999999999993,166,151,15
17,1.7261011876429952,0.7477626346599205,2.148698263757142,1.4449396580457687,1.5304222702980042,6.499999999999997,0.20455312728881836,14.7,173,157,16
18,1.9495421423459807,1.5707963267948966,1.8474646658767915,3.230442762374878,1.5230739209800959,6.499999999999997,0.21349501609802246,21.1,201,180,21
19,0,0,0,0,0,0,0,0,0,0,0
20,0.45471927482096947,0.6944982656265561,0.6327488350021833,0.9122969135642052,1.7059187293052673,2.0,0,-248.3,84,84,1
21,0.3416154906478071,0.20135792079033082,0.4081491037550892,1.3946248292922974,1.5076957368291914,6.799999999999997,0.21448707580566406,23.599999999999994,109,103,6
22,1.3306253189347237,1.5707963267948966,1.2365982825293935,2.57924222946167,2.0,6.499999999999997,0.2080368995666504,21.6,179,159,20
23,2.2026945807717007,0.020001333573390494,1.9098136108594228,1.1411752104759216,1.99895179271698,6.1999999999999975,0.21080803871154785,12.9,149,141,8
24,2.014389318211456,0.060036058445278435,1.4679855008271812,2.4339420795440674,2.544602859765291,6.499999999999997,0.21200084686279297,14.799999999999997,205,192,13
25,1.4663392033212757,1.5707963267948966,1.7738415440483615,1.8267380893230438,1.3691478371620178,6.499999999999997,0.2135000228881836,18.0,149,138,11
26,0.9240379005316066,1.5707963267948966,0.5880026035475676,1.6125976666808128,1.8606294989585876,6.1999999999999975,0.18726706504821777,14.4,118,109,9
27,1.6784861976277172,1.5707963267948966,1.7707892834010777,2.9809826612472534,3.8318231105804443,6.499999999999997,0.20786309242248535,18.4,227,208,19
28,0.6747409422235527,1.03526967248051,2.475623416210683,1.4900266686454415,1.8046385049819946,6.499999999999997,0.14389801025390625,14.8,132,120,12
29,1.3146449442292933,1.5707963267948966,1.199278471648188,5.135343074798584,3.1902832984924316,6.499999999999997,0.19131898880004883,22.6,267,236,31
30,0,0,0,0,0,0,0,0,0,0,0
31,1.8939415804266915,1.5707963267948966,1.4410937896389846,1.4651299715042114,1.4897924065589905,6.499999999999997,0.21340107917785645,18.299999999999997,171,155,16
32,1.473069419436178,0,1.0053124386400722,2.9489357471466064,1.068130373954773,6.799999999999997,0.20139598846435547,25.4,153,137,16
33,0.9272952180016122,0.16069065295191062,0.8243395064944877,3.0437443256378174,1.4878497123718262,6.499999999999997,0.1610581874847412,14.9,174,163,11
34,1.6092389168160846,1.5707963267948966,1.4118910646137037,1.129770040512085,2.259331703186035,6.799999999999997,0.19370102882385254,37.19999999999999,184,164,20
35,1.2870022175865687,1.5707963267948966,1.9222411207984482,1.0960345268249512,1.3511249423027039,6.499999999999997,0.19515109062194824,247.5,192,173,19
36,0.9420000403794637,0.9614110187641017,1.334551066076459,1.4802697896957397,1.5,6.499999999999997,0.2123279571533203,15.899999999999999,143,131,12
37,1.6142472221864275,1.5707963267948966,1.4266419396817425,1.5216424465179443,3.0421645641326904,6.499999999999997,0.2056128978729248,16.0,182,163,19
38,0,0,0,0,0,0,0,0,0,0,0
39,3.141592653589793,1.5707963267948966,3.141592653589793,1.2519893944263458,5.992944717407227,6.799999999999997,0.1928539276123047,13.5,165,150,15
40,0,0,0,0,0,0,0,0,0,0,0
41,1.845706168275569,1.5707963267948966,2.8809902618424523,1.4656170904636383,2.5332049131393433,7.099999999999997,0.1707000732421875,16.0,158,145,13
42,0,0,0,0,0,0,0,0,0,0,0
43,1.0533085858207882,0.5468509506959441,2.2584675828336263,1.2108766734600067,1.0574350953102112,6.499999999999997,0.19769597053527832,24.599999999999998,147,131,16
44,3.141592653589793,1.5707963267948966,3.141592653589793,1.0113635063171387,2.08723521232605,6.799999999999997,0.21720290184020996,14.1,141,128,13
45,3.141592653589793,0,2.761086276477428,1.9571129083633423,1.268847942352295,6.499999999999997,0.20771098136901855,20.3,181,163,18
46,3.1415926535897922,0,2.38896963459642,0.9806320834904909,1.3335354924201965,6.499999999999997,0.20954179763793945,217.9,144,132,12
47,1.772686238406238,1.5707963267948966,1.47634139139985,0.9537365734577179,1.6907283067703247,6.499999999999997,0.1955711841583252,32.49999999999999,180,158,22
48,3.141592653589792,1.5707963267948966,2.356194490192346,2.027666211128235,2.005626618862152,6.499999999999997,0.14907002449035645,12.0,143,134,9
49,0.9025069079643129,0,0.8379812250083905,0.7955025434494019,3.219648838043213,6.1999999999999975,0.20879888534545898,14.5,140,128,12
50,1.751722787549018,0.5943858000010622,1.1593400833811944,1.4597367644309998,1.1466394066810608,6.799999999999997,0.20914196968078613,26.599999999999994,134,122,12
51,2.20354516179708,1.5707963267948966,2.20354516179708,1.722841739654541,2.418679654598236,6.499999999999997,0.19867300987243652,18.9,177,160,17
52,1.1071487177940906,1.5707963118937354,0.7531512809621946,1.102996677160263,3.6745259761810303,7.399999999999997,0.21490192413330078,14.7,158,138,20
53,0.02083032003621709,0.04001067435398893,0.02083032003621709,1.0,0.9607078768312931,2.8999999999999995,0,3.5,17,16,2
54,1.8269477093605,0.020001333573390494,1.5024099832043931,2.055313467979431,2.4064507484436035,6.499999999999997,0.20095109939575195,17.5,142,127,15
55,1.1638255414261254,0,0.9162255594715054,2.146957755088806,1.5553399324417114,6.799999999999997,0.21877789497375488,18.5,147,133,14
56,1.662562408234703,1.119769514998635,1.2717691332398955,1.1931974291801453,2.2206796407699585,6.499999999999997,0.21427011489868164,20.699999999999996,142,128,14
57,0,0,0,0,0,0,0,0,0,0,0
58,1.6654493473639784,0.08008558003365902,1.4775424116901168,1.20907261967659,4.009685516357422,6.799999999999997,0.21439480781555176,21.9,164,145,19
59,0,0,0,0,0,0,0,0,0,0,0
60,0.7853981633974484,0.08008558003365893,0.5317240672588058,1.1570519804954529,1.25369793176651,6.1999999999999975,0.16775298118591309,12.700000000000001,104,96,8
61,1.0986743443911198,1.0352696724805088,2.263438170004201,1.9886536002159119,5.174357891082764,6.799999999999997,0.2201979160308838,18.9,156,136,20
62,1.7717505904829935,1.5707963267948966,2.060753653048625,1.8880931735038757,1.837701439857483,6.499999999999997,0.1659390926361084,13.8,108,96,12
63,0,0,0,0,0,0,0,0,0,0,0
64,2.356194490192345,1.5707963267948966,3.141592653589793,1.7390577793121338,1.9781462252140045,6.499999999999997,0.212662935256958,23.099999999999998,127,115,12
65,0,0,0,0,0,0,0,0,0,0,0
66,2.2083451249335893,0,2.2117529118177006,2.909162998199463,1.8381665647029877,6.799999999999997,0.20978212356567383,21.6,170,152,18
67,1.5707963267948966,1.5707963267948966,2.008587630436443,1.018177092075348,0.9511038213968277,6.499999999999997,0.19105911254882812,27.099999999999994,131,116,15
68,1.8317523253167498,0.24236585103896327,1.2905973348410462,0.9990104734897614,1.1736016273498535,6.1999999999999975,0.20790910720825195,10.5,129,119,10
69,1.6814535479687922,0.16069065295191062,1.4219063791853994,2.411675214767456,2.8040530681610107,6.499999999999997,0.19936585426330566,16.0,137,122,15
70,1.6142472221864275,1.5707963267948966,1.4625257359344406,2.1647989749908447,0.8711709082126617,6.499999999999997,0.14509892463684082,15.699999999999998,110,98,12
71,0.9900399732272264,1.5707963267948966,0.12062366858010277,2.1533393263816833,1.7223162651062012,6.799999999999997,0.208204984664917,15.0,153,132,21
72,1.8128680213660155,1.5707963267948966,0.8794593980254347,2.2644089460372925,1.3569932281970978,6.1999999999999975,0.22323203086853027,13.6,127,116,11
73,0,0,0,0,0,0,0,0,0,0,0
74,1.5639937106400879,0.9272952180016123,0.8809962820612888,1.9275239706039429,1.8669963777065277,6.499999999999997,0.19272899627685547,15.9,141,131,10
75,2.560212469784893,1.5707963267948966,1.9532828993388291,1.5402506589889526,1.3095657527446747,6.799999999999997,0.21780896186828613,35.499999999999986,140,121,19
76,1.3397056595989996,1.5707963267948966,0.8934098880974946,1.0644769668579102,1.2718914151191711,6.799999999999997,0.21158695220947266,17.6,115,102,13
77,0.7853981633974484,0,0.34877100358390706,2.1248613595962524,2.560831069946289,6.499999999999997,0.21484613418579102,20.0,114,102,12
78,1.7584360985992626,0,1.6624924830547596,0.9693684577941895,3.660135269165039,6.499999999999997,0.1988849639892578,16.1,158,141,17
79,1.5861797285754917,1.5707963267948966,2.1293956421384586,2.9481005668640137,2.1707537174224854,6.799999999999997,0.21373701095581055,15.5,204,181,23
80,2.830222349191891,1.5707963267948966,2.7919855297993914,1.657288283109665,1.3657234609127045,7.399999999999997,0.1624469757080078,24.2,146,127,19
81,2.2212177403384215,0.04001067435398893,2.2212177403384215,2.011201567016542,1.246843546628952,6.499999999999997,0.16841793060302734,25.699999999999996,167,151,16
82,0.6304014214735074,0.1606906529519105,0.2812322019182953,1.4449383914470673,2.1529741287231445,6.499999999999997,0.21586298942565918,25.399999999999995,121,109,12
83,0.02083032003621709,0,0.02083032003621709,0.3281589597463608,1.0,2.0,0,1.4,9,10,0
84,1.431087452505733,1.5707963267948966,1.033885584054851,1.6288299560546875,0.9408695809543133,7.099999999999997,0.2169780731201172,23.999999999999996,115,106,9
85,3.141592653589793,0.12028988239478809,3.141592653589793,2.630026340484619,1.137788638472557,6.799999999999997,0.21272993087768555,22.1,182,156,26
86,1.240498971965643,0.32572948729463025,0.9272952180016124,1.2228243052959442,1.6753528267145157,6.799999999999997,0.20409297943115234,20.299999999999997,146,129,17
87,0.8148014516014536,0.24236585103896321,0.44344833641973846,2.8322997093200684,2.439725399017334,6.1999999999999975,0.19856810569763184,15.2,135,120,15
88,1.2490457723982547,1.5707963267948966,1.1807482545314472,1.1454857140779495,1.4354928731918335,6.799999999999997,0.20836305618286133,20.2,147,130,17
89,1.2706251559647845,0.2013579207903308,0.65107672144448,1.4132280945777893,1.1536116003990173,7.399999999999997,0.2165369987487793,26.899999999999995,141,123,18
90,1.0636978224025597,1.5707963267948966,0.12062366858010289,2.684622049331665,2.121678590774536,7.099999999999997,0.2116560935974121,29.299999999999994,114,100,14
91,0.9638086627484889,0,0.412410441597388,1.7940305471420288,4.155684947967529,6.1999999999999975,0.2072279453277588,17.8,163,148,15
92,0,0,0,0,0,0,0,0,0,0,0
93,1.4827889532671559,0.5468509506959441,1.182477608622431,1.7719400525093079,1.6809197664260864,7.099999999999997,0.19267606735229492,12.9,123,111,12
94,0.15431877592611906,0.22181447049679445,0.15431877592611906,0.7811451256275177,1.4893181025981903,4.099999999999999,0,6.0,57,55,3
95,0.9638086627484889,1.5707963267948966,0.7509290623979404,2.1377785205841064,1.3342084288597107,6.799999999999997,0.21811914443969727,14.7,114,102,12
96,1.8925468811915387,1.5707963267948966,1.896595442067567,1.3851032257080078,2.3070567548274994,6.1999999999999975,0.1919100284576416,23.299999999999997,167,151,16
97,0.6181442259351873,0.833070358341648,2.9441970937399127,1.4723886847496033,1.8343628644943237,6.499999999999997,0.20848679542541504,21.499999999999996,115,103,12
98,0.2213144423477913,0,0.2213144423477913,1.37949800491333,0.7503398954868317,6.1999999999999975,0.21541810035705566,26.09999999999999,66,61,5
99,1.1254952829072107,0.3257294872946302,1.313472611823808,1.397146075963974,1.5647102147340775,6.499999999999997,0.18756794929504395,16.299999999999997,105,93,12
100,0.7987307066915941,0.2837941092083278,0.3028848683749716,1.230427086353302,2.563232183456421,6.499999999999997,0.15769290924072266,24.699999999999996,121,105,16
101,0.8602580111082152,1.5707963267948966,1.815774989921761,1.4746570456773043,1.993891566991806,6.499999999999997,0.21180295944213867,15.7,135,118,17
102,1.8157749899217606,1.5707963267948966,1.5541312030809558,1.8003430366516113,2.3141860961914062,6.499999999999997,0.2149190902709961,14.8,131,117,14
103,1.5707963267948966,1.5707963267948966,1.517084597491664,2.51547908782959,1.3383187055587769,6.1999999999999975,0.20912599563598633,13.0,139,126,13
104,1.1818394466158897,1.2226303055219363,0.933725997519213,1.5146410465240479,1.7051565647125244,6.799999999999997,0.20565509796142578,20.4,152,137,15
105,0.6470471932203232,0.3257294872946302,2.009132886652854,1.603663444519043,3.2312272787094116,6.1999999999999975,0.20845413208007812,13.2,150,139,11
106,0.08314123188844125,0,3.750753461571475e-17,1.609805017709732,1.0,3.1999999999999993,0,4.6,23,23,1
107,1.6052654277944047,1.5707963267948966,1.484802035600656,0.7270113825798035,3.0017040967941284,6.499999999999997,0.21848392486572266,19.5,107,93,14
108,0.5224034317165289,0.32572948729463025,0.7266423406817258,1.42279851436615,0.8211112022399902,2.3,0,3.5,45,43,3
109,0.5295895987820765,0.36826789343663996,0.4808872801953359,1.0391361713409424,1.1260191053152084,6.499999999999997,0.21208691596984863,19.099999999999998,95,82,13
110,1.6761737659838392,1.5707963267948966,1.3473197256542637,2.7808210849761963,1.6114617139101028,6.799999999999997,0.21311211585998535,12.0,136,121,15
111,0.6273081922757626,0.1001674211615598,0.48995732625372845,1.0,1.025564730167389,6.799999999999997,0.1999349594116211,14.5,92,76,16
112,1.2490457723982544,0,0.8198672643969563,1.575143851339817,1.98174705542624,6.1999999999999975,0.2052459716796875,13.2,126,112,14
113,1.4288992721907319,0,1.570796326794896,0.8668000996112823,1.287900149822235,6.499999999999997,0.2189500331878662,18.199999999999996,100,92,8
114,2.6581456520225943,1.5707963267948966,2.560836300022123,1.2215642929077148,2.670059323310852,6.799999999999997,0.2156989574432373,14.5,97,86,11
115,0.6973907898697077,1.5707963267948966,1.653937558683338,2.855898857116699,0.8093969523906708,6.499999999999997,0.23815107345581055,21.3,167,139,28
116,0.4899573262537284,0.7753974966107533,0.29145679447786715,1.6032233238220215,0.9429958052933216,6.499999999999997,0.20949316024780273,10.5,108,93,15
117,1.6421037915801868,1.5707963267948966,1.3106417630516534,2.1302491426467896,1.141829252243042,7.399999999999997,0.1657581329345703,25.099999999999994,161,141,20
118,1.4573613349876804,0.24236585103896327,1.1469287162651174,0.9451876133680344,1.3270454406738281,7.099999999999997,0.21510696411132812,14.3,124,108,16
119,0,0,0,0,0,0,0,0,0,0,0
120,1.0104364498900538,1.5707963267948966,1.3876855095324125,4.218520879745483,1.8348176181316376,6.799999999999997,0.2121448516845703,18.4,151,135,16
121,1.2971370057128062,1.5707963267948966,1.815774989921761,1.3149546384811401,1.4396241903305054,6.499999999999997,0.2141420841217041,13.7,106,94,12
122,1.4546546999149064,1.5707963267948966,1.6092389168160846,0.882503867149353,2.0388600826263428,6.499999999999997,0.21848416328430176,15.2,135,120,15
123,0,0,0,0,0,0,0,0,0,0,0
124,2.4668517113662403,1.5707963267948966,1.872415373061136,1.0002159476280212,1.078242540359497,6.499999999999997,0.21341395378112793,22.699999999999996,147,133,14
125,0.43662715981354133,0.41151684606748806,0.48344700156719894,1.6718681454658508,1.0130650997161865,6.499999999999997,0.21452617645263672,8.2,72,64,8
126,0.6316906343389693,0.34691689752716176,0.6316906343389693,1.732949048280716,1.2801527976989746,7.099999999999997,0.2085258960723877,12.0,119,103,16
127,1.037088135155635,0.24236585103896324,0.4733560418349151,1.7534117698669434,1.0685394555330276,6.499999999999997,0.22962403297424316,15.600000000000001,101,88,13
128,1.5707963267948966,0.28379410920832776,1.6262948320406134,1.4029271006584167,1.572329044342041,6.499999999999997,0.2135298252105713,14.6,147,129,18
129,0.8441539861131712,0.08008558003365902,0.5364354576047313,0.8340553492307663,2.0717270374298096,6.799999999999997,0.2046501636505127,16.7,115,104,11
130,1.6991195544806914,1.5707963267948966,1.6862229871618213,3.9219634532928467,2.1417826414108276,6.499999999999997,0.19635796546936035,17.5,173,152,21
131,0,0,0,0,0,0,0,0,0,0,0
132,1.321209401357912,1.5707963267948966,1.7832283473036388,0.8612171411514282,1.1647542864084244,6.799999999999997,0.21018695831298828,11.2,122,107,15
133,1.7715932340720186,0.7208187608700902,1.374990590724804,2.7251445055007935,2.4384992122650146,6.499999999999997,0.2080090045928955,17.3,180,159,21
134,1.5707963267948966,1.5707963267948966,2.796945337971767,2.035598289221525,2.3511612117290497,6.499999999999997,0.2012500762939453,16.1,120,109,11
135,1.4582307109912116,0.9972832223717998,1.6313283465770039,2.117777705192566,0.9834449458867311,6.799999999999997,0.20839595794677734,19.5,132,113,19
136,0.5779019369622457,0.2218144704967943,0.5971766580926776,4.367082595825195,3.7084732055664062,6.799999999999997,0.21004605293273926,15.4,165,147,18
137,0.5404195002705842,0.32572948729463025,2.297438667476622,1.470655918121338,1.040216088294983,6.499999999999997,0.1719670295715332,8.0,70,59,11
138,1.282740879744271,1.5707963267948966,0.76101275422473,2.5445367097854614,1.0185288675129414,6.799999999999997,0.2109999656677246,16.2,157,137,20
139,1.7942729279355296,0,1.3412689725516063,1.037426870316267,3.328808069229126,6.499999999999997,0.20832514762878418,15.5,131,118,13
140,1.4784669920632976,1.5707963267948966,1.4399689307208396,2.485862661153078,2.6881836652755737,6.499999999999997,0.20220303535461426,11.9,98,86,12
141,0.06114816264930122,0.060036058445278435,0.027020449187264813,0.6724331676959991,3.4622113704681396,2.3,0,3.0,26,26,1
142,0.4366271598135413,0.12028988239478809,0.12435499454676156,1.5,0.9890578975901008,6.499999999999997,0.2055511474609375,24.999999999999996,96,84,12
143,0.5779019369622457,0.694498265626556,1.1341691669813554,1.8547420501708984,1.832082986831665,7.699999999999997,0.16037487983703613,13.4,124,109,15
144,1.5113426674862398,0.020001333573390494,0.9793573106573416,1.6430561542510986,3.5328867435455322,6.799999999999997,0.20984101295471191,18.7,148,128,20
145,0,0,0,0,0,0,0,0,0,0,0
146,0.9638086627484888,0,0.7700147616168532,1.1295428276062012,2.3376153707504272,6.499999999999997,0.21272683143615723,15.100000000000001,134,117,17
147,1.150916369589345,0,1.06369782240256,2.202898383140564,2.44550758600235,6.799999999999997,0.22085309028625488,14.5,158,140,18
148,1.9655874464946579,1.5707963267948966,2.0626055027835952,1.1714372038841248,1.3731809556484222,7.099999999999997,0.2037670612335205,15.0,132,111,21
149,0.6510767214444799,1.5707963267948966,0.5224034317165289,2.0378188975155354,1.7750937342643738,6.799999999999997,0.20770692825317383,13.5,117,108,9
150,0,0,0,0,0,0,0,0,0,0,0
151,1.7023844682528173,1.5707963267948966,1.1659045405098134,2.9931362867355347,1.9236340522766113,7.099999999999997,0.2103419303894043,18.9,153,132,21
152,1.0104364498900538,0.08008558003365902,0.8826513616490144,0.6158744618296623,1.561592698097229,6.799999999999997,0.2045128345489502,12.600000000000001,85,73,12
153,1.6837159875474992,1.5707963267948966,0.910947900505974,0.9592945501208305,0.9505981206893921,6.799999999999997,0.2058110237121582,20.1,120,105,15
154,2.026411980006121,0.04001067435398893,1.1659045405098132,0.9521424770355225,2.247947335243225,6.799999999999997,0.2542099952697754,15.9,115,103,12
155,0.7641247773733872,1.0352696724805088,0.9272952180016125,2.001575469970703,2.5,6.499999999999997,0.21082186698913574,11.7,120,105,15
156,0,0,0,0,0,0,0,0,0,0,0
157,1.39408747072486,0.20135792079033074,0.8117078806503705,2.005137614905834,1.445952981710434,6.499999999999997,0.21448588371276855,12.6,97,88,9
158,2.1776020237793516,1.5707963267948966,1.5845569260770846,1.504297827836126,2.1689088344573975,6.1999999999999975,0.14769506454467773,15.7,149,128,21
159,0.9723774333163595,0.8038023189330301,0.4444192099010992,1.2628800868988037,1.541075348854065,6.499999999999997,0.21532583236694336,10.7,88,74,14
160,1.1760052070951352,0.04001067435398893,0.9056936403254024,1.8447715044021606,1.3888626098632812,6.1999999999999975,0.15928101539611816,15.4,113,100,13
161,1.8788491078186729,1.5707963267948966,1.602700391279919,1.6561241149902344,1.5303277969360352,6.499999999999997,0.20741915702819824,28.7,137,125,12
162,0.6078019961139605,0.7477626346599205,0.044415215246910715,1.0,1.4438093304634094,6.499999999999997,0.22293806076049805,323.5,134,117,17
163,1.0592401996245913,0.12028988239478809,0.38588266939807414,1.6941518783569336,1.7019320726394653,6.499999999999997,0.20006179809570312,12.8,120,104,16
164,1.1959556114392988,0.34691689752716165,0.9041035005406254,1.3194822072982788,1.602250576019287,6.1999999999999975,0.20154118537902832,17.2,95,81,14
165,1.7247409912532465,1.5707963267948966,1.1525719972156678,3.1091601848602295,2.1578714847564697,6.799999999999997,0.21270298957824707,11.7,130,119,11
166,0.40814910375508934,0.04001067435398893,0.7531512809621944,1.3888910412788391,0.9996532797813416,6.799999999999997,0.19634604454040527,11.9,93,80,13
167,0.7205541358442417,0.5235987755982989,0.38050637711236496,1.0017374021699652,1.5759959071874619,6.799999999999997,0.1924898624420166,25.999999999999993,117,105,12
168,1.6319444894441977,0.5006547124045881,0.5404195002705842,1.4989986019209027,1.6041963249444962,7.099999999999997,0.2052628993988037,17.8,107,92,15
169,0.5543074962015513,0.546850950695944,0.4554510712508935,0.8878462389111519,3.5742104053497314,6.799999999999997,0.20107793807983398,15.5,145,125,20
170,1.240849234648342,1.5707963267948966,1.1425321739182421,1.8871785029768944,1.5217260122299194,10.400000000000002,0,181.49999999999994,194,159,36
171,2.0481417091685685,0.775397496610753,1.2277723863741932,0.9048672616481781,0.9415840208530426,6.1999999999999975,0.16050100326538086,25.199999999999996,139,123,16
172,1.2610933822524404,0.8330703583416477,0.5239193476851991,1.8491066098213196,0.8460922986268997,6.1999999999999975,0.21110796928405762,12.5,95,84,11
173,1.2392421649189584,1.5707963267948966,1.5707963267948966,2.050745189189911,1.2677707076072693,6.499999999999997,0.21912097930908203,9.7,100,88,12
174,0,0,0,0,0,0,0,0,0,0,0
175,1.3078015951139772,0,0.5880026035475676,1.3380162119865417,1.0730048418045044,6.499999999999997,0.2000901699066162,20.4,103,90,13
176,0.7974457732516345,0.3257294872946302,0.6889243882148616,1.5087477415800095,1.543046474456787,6.499999999999997,0.20272397994995117,17.6,97,85,12
177,1.7226787841748477,1.5707963267948966,1.6025317003233546,2.524155616760254,2.276599407196045,6.799999999999997,0.21493983268737793,15.1,131,116,15
178,0.29544083714371994,0.5468509506959441,1.7818896600176426,2.2411030530929565,1.509400806389749,7.099999999999997,0.16577506065368652,16.8,131,114,17
179,0,0,0,0,0,0,0,0,0,0,0
180,0.7086262721276703,0.12028988239478808,0.8760580505981936,1.2028924524784088,0.96689373254776,6.499999999999997,0.2131659984588623,26.099999999999994,113,98,15
181,1.4247840690836213,0.14046141470985582,1.6010900867136717,1.8731119930744171,2.2188140153884888,6.499999999999997,0.17016291618347168,14.4,129,117,12
182,0,0,0,0,0,0,0,0,0,0,0
183,1.841743177133317,0,1.6262948320406132,1.3356462717056274,1.3623692095279694,6.499999999999997,0.14058804512023926,18.999999999999996,148,132,16
184,0.5404195002705843,1.2870022175865687,0.4955516734858285,1.393960863351822,1.2724220156669617,6.499999999999997,0.21367502212524414,222.3,111,95,16
185,0,0,0,0,0,0,0,0,0,0,0
186,0.48995732625372834,0.41151684606748784,0.1973955598498808,0.9661059975624084,1.1396655291318893,6.799999999999997,0.20679497718811035,21.799999999999997,132,109,23
187,0.8176450458327024,0.5943858000010622,0.8794593980254346,1.140351340174675,0.8583609610795975,6.499999999999997,0.20734786987304688,13.8,73,64,9
188,0,0,0,0,0,0,0,0,0,0,0
189,2.9441970937399127,1.5707963267948966,2.9441970937399127,1.0795506238937378,1.4526584707200527,6.499999999999997,0.14072012901306152,17.0,111,91,20
190,0.8760580505981935,0.3682678934366401,1.5707963267948963,1.6990597248077393,1.023277461528778,6.499999999999997,0.20475411415100098,23.099999999999998,128,110,18
191,0.5404195002705843,0.12028988239478809,0.4324077755705377,1.0,1.1441929340362549,6.499999999999997,0.18939685821533203,18.2,128,112,16
192,1.3200870673734877,0.8330703583416481,0.9162255594715054,1.265317976474762,2.8427553176879883,7.099999999999997,0.20904898643493652,15.100000000000001,120,104,16
193,1.2565644277105583,0,2.370686229257845,0.8941987305879593,4.240937948226929,6.499999999999997,0.20275497436523438,23.0,120,101,19
194,0,0,0,0,0,0,0,0,0,0,0
195,0.38050637711236496,0.060036058445278435,0.616296937396071,1.9683085680007935,0.9879287397488952,6.799999999999997,0.210845947265625,12.0,102,90,12
196,1.6910918037228508,0,1.8391625377008034,1.5884753465652466,1.4986277520656586,6.499999999999997,0.18949389457702637,22.599999999999994,106,89,17
197,0.681298225287849,0.411516846067488,0.020830320036216998,1.0185560788959265,1.328591525554657,6.799999999999997,0.19978904724121094,20.4,99,82,17
198,1.2322406318832124,0.5006547124045883,1.349146763816219,1.1289899945259094,1.3043249249458313,6.799999999999997,0.19912099838256836,19.799999999999997,113,101,12
199,1.4782777056752499,0,2.2896263264165206,1.5573396682739258,1.4893288016319275,6.499999999999997,0.21026897430419922,10.9,104,92,12
200,1.1999050379822342,0.6435011087932845,0.689800044733608,1.3266617953777313,2.0292683839797974,6.499999999999997,0.21137189865112305,14.5,92,79,13
201,0.9505468408120751,0.020001333573390494,1.9222411207984484,0.9036403968930244,1.2953979969024658,6.499999999999997,0.24346399307250977,22.099999999999994,156,139,17
202,0.809783572570167,0.24236585103896321,0.9025069079643129,1.3795182704925537,1.930679202079773,6.499999999999997,0.2044069766998291,13.0,99,86,13
203,0.4081491037550892,0,0.27416745111965896,1.9018945693969727,0.5807694122195244,6.499999999999997,0.16846489906311035,10.4,73,61,12
204,1.297787623708186,0.16069065295191054,0.5565993180102229,3.8327410221099854,1.6896250247955322,6.799999999999997,0.2188730239868164,15.3,120,101,19
205,0.38050637711236485,0.8038023189330303,0.34161549064780716,1.862219661474228,1.0764282941818237,6.499999999999997,0.2005469799041748,13.7,104,90,14
206,1.1441688336680205,0.41151684606748806,1.017115004587899,1.9355432391166687,1.2348869740962982,6.499999999999997,0.21478891372680664,14.5,108,97,11
207,0,0,0,0,0,0,0,0,0,0,0
208,1.1930296688550754,1.5707963267948966,1.1498057525426513,2.1483832597732544,1.9872004985809326,6.499999999999997,0.20677804946899414,24.199999999999996,154,134,20
209,0,0,0,0,0,0,0,0,0,0,0
210,1.9171504166559226,1.5707963267948966,1.592221619243431,1.2310950756072998,1.5555616170167923,6.499999999999997,0.19551396369934082,31.799999999999994,120,102,18
211,1.0990188156141467,1.5707963267948966,0.8478169733934059,1.3796930387616158,2.2874423265457153,6.499999999999997,0.20192503929138184,19.1,111,96,15
212,0.9484934556076892,0,0.274167451119659,1.5,2.928767681121826,6.799999999999997,0.2146439552307129,10.7,116,101,15
213,0,0,0,0,0,0,0,0,0,0,0
214,1.4257546284682912,0.060036058445278435,1.307398694249396,1.1892581582069397,2.6725282669067383,6.799999999999997,0.21026301383972168,14.3,98,85,13
215,0.9526521008597095,1.5707963267948966,1.2793395323170296,2.0248656272888184,1.6912553906440735,7.099999999999997,0.20421791076660156,12.2,135,119,16
216,1.1071487177940906,1.5707963267948966,2.293775680196387,1.2083725035190582,1.12220349162817,6.499999999999997,0.21270298957824707,418.79999999999995,106,93,13
217,1.6475682180646747,1.5707963267948966,1.0029522825314567,1.581131100654602,2.6189132928848267,6.499999999999997,0.2400650978088379,17.4,107,89,18
218,1.7717505904829935,0,1.3473197256542637,0.7070525288581848,1.2605782449245453,7.099999999999997,0.21673011779785156,18.699999999999996,80,68,12
219,0,0,0,0,0,0,0,0,0,0,0
220,0.7008544078844502,0.5704371093999219,0.26211984126547283,1.785118579864502,1.5,7.099999999999997,0.1687180995941162,9.5,96,83,13
221,1.8157749899217606,0.020001333573390494,0.9272952180016124,1.0040842294692993,2.3345437049865723,6.1999999999999975,0.2014479637145996,13.600000000000001,110,94,16
222,1.9064348771225057,1.5707963267948966,1.7055676112726277,3.0883164405822754,1.3748770952224731,6.499999999999997,0.2013249397277832,14.8,115,95,20
223,0,0,0,0,0,0,0,0,0,0,0
224,0.8441539861131712,0.3046926540153976,0.7604033697785283,2.2065354585647583,1.5306175220757723,6.799999999999997,0.14083194732666016,15.7,124,106,18
225,0.42285392613294076,0.18098645124654772,0.32175055439664213,1.601517915725708,2.914999485015869,6.799999999999997,0.2042090892791748,15.7,109,95,14
226,1.1150225708181913,0.28379410920832787,0.809783572570167,1.6082466840744019,1.5164101123809814,6.799999999999997,0.21712708473205566,14.0,133,114,19
227,0,0,0,0,0,0,0,0,0,0,0
228,1.2847448850775784,0.4115168460674879,1.1357123756328507,2.0211966037750244,2.6717870235443115,6.499999999999997,0.21199297904968262,10.9,98,83,15
229,1.2120256565243244,0.08008558003365902,0.8934098880974946,1.0,0.9740332011133432,6.499999999999997,0.1974630355834961,14.5,105,89,16
230,1.1071487177940906,0.020001333573390494,0.9272952180016123,2.5317374877631664,2.0857759714126587,6.499999999999997,0.20891499519348145,14.0,94,78,16
231,0.9723774333163595,0.16069065295191062,0.055498505245717214,1.0288013219833374,1.843169927597046,6.799999999999997,0.2086470127105713,29.999999999999993,110,94,16
232,0.7140906986121581,0.9272952180016123,0.7140906986121581,2.1221457719802856,1.6708272695541382,6.1999999999999975,0.22165608406066895,13.6,96,87,9
233,0,0,0,0,0,0,0,0,0,0,0
234,1.5042281630190728,0,1.7521161011963868,1.833233118057251,2.4880038499832153,6.499999999999997,0.19153690338134766,12.0,134,115,19
235,0.3805063771123649,0,0.2053953891897674,1.8579497337341309,1.0107629299163818,6.799999999999997,0.20904898643493652,10.5,91,76,15
236,0.6986598247214634,0.833070358341648,0.48995732625372845,1.280694842338562,2.202989935874939,6.499999999999997,0.2109670639038086,13.0,97,86,11
237,0.8721365020734335,0.040010674353988876,0.3152146997507111,1.8234112858772278,1.5299502238631248,6.799999999999997,0.2140660285949707,12.7,108,93,15
238,0.8176450458327023,0.18098645124654775,0.32175055439664224,1.3344075977802277,1.3884575068950653,6.799999999999997,0.20671892166137695,14.2,98,84,14
239,1.363300100359694,0,1.281525321185755,1.2959587275981903,1.5,7.099999999999997,0.20575189590454102,15.8,120,108,12
240,1.442926408234897,0.1001674211615598,1.1254952829072111,3.226340413093567,0.7927889823913574,6.499999999999997,0.19822216033935547,21.0,120,103,17
241,2.2414928016881275,1.5707963267948966,1.5707963267948966,1.1877777576446533,1.0312680639326572,6.499999999999997,0.19046998023986816,27.099999999999998,131,118,13
242,1.9295669970654687,1.5707963267948966,1.0785850599553304,1.433319330215454,1.8268839716911316,6.1999999999999975,0.22183585166931152,14.3,107,97,10
243,2.1763409903998667,0.02000133357339049,2.179485634122308,2.169753313064575,2.7423887252807617,6.499999999999997,0.1901850700378418,13.6,127,110,17
244,1.3608228139327332,1.5707963267948966,2.4030352031083146,2.6225318908691406,1.4694804549217224,7.099999999999997,0.1495649814605713,15.1,114,93,21
245,2.148698263757142,0.18098645124654772,1.2291808361470893,1.0,2.206804037094116,6.499999999999997,0.21664214134216309,18.099999999999998,81,70,11
246,1.2291808361470895,0.10016742116155981,0.5467888408892473,1.540079951286316,1.6074132919311523,6.499999999999997,0.21126508712768555,13.0,107,89,18
247,0,0,0,0,0,0,0,0,0,0,0
248,1.058406866484159,0.6944982656265558,0.5991753229863068,1.169812634587288,2.647169828414917,6.799999999999997,0.19568395614624023,17.5,109,95,14
249,1.5957911204138169,0,2.129395642138459,1.4879779508337379,2.0,6.499999999999997,0.20980310440063477,10.9,102,86,16
250,0,0,0,0,0,0,0,0,0,0,0
251,1.1201350007142632,1.5707963267948966,1.1150225708181911,1.4089169725775719,0.683293879032135,6.499999999999997,0.19393014907836914,28.999999999999993,98,85,13
252,1.3871740006256164,0.9272952180016121,1.2170931807137748,2.4264267683029175,1.0575149655342102,6.799999999999997,0.2109220027923584,21.4,121,98,23
253,1.332960399337446,0.433445320069886,0.9900399732272263,1.6444035172462463,1.829013466835022,6.799999999999997,0.20992183685302734,12.0,105,88,17
254,1.054565656183149,0.1202898823947881,0.5467888408892473,0.8240406215190887,2.5164568424224854,6.799999999999997,0.15891695022583008,14.9,100,83,17
255,0.6805212246672147,1.0758622004540008,0.4475199751571702,1.6256253719329834,1.139460951089859,6.499999999999997,0.19589900970458984,12.8,98,87,11
256,1.606925177307672,0,1.2555816270441855,2.9165631532669067,0.5121983624994755,6.499999999999997,0.20691704750061035,17.400000000000002,95,80,15
257,1.273732114453854,1.5707963267948966,1.0960994437147218,1.891097068786621,2.3186068385839462,7.099999999999997,0.16065716743469238,29.599999999999994,125,106,19
258,0,0,0,0,0,0,0,0,0,0,0
259,0.7597627548757709,1.5707963267948966,0.7008544078844505,2.7588233947753906,1.0481655597686768,7.099999999999997,0.21082305908203125,14.5,121,101,20
260,1.5707963267948966,0.16069065295191062,1.2291808361470895,1.1874064058065414,1.6888968348503113,6.499999999999997,0.17199110984802246,13.7,117,98,19
261,0,0,0,0,0,0,0,0,0,0,0
262,0.919719605350417,1.5707963267948966,0.29145679447786765,1.523725986480713,1.2707227766513824,6.499999999999997,0.1597449779510498,25.199999999999996,122,104,18
263,1.2490457723982544,0.9972832223717998,1.1263771168937977,2.456753648817539,1.1803419589996338,6.1999999999999975,0.20610499382019043,14.2,92,82,10
264,0,0,0,0,0,0,0,0,0,0,0
265,2.083185787105634,0.04001067435398893,1.9832067683922836,1.453804574906826,0.9661663472652435,6.499999999999997,0.21422886848449707,13.9,114,102,12
266,0.43662715981354133,0.26302220290846884,0.25933174440068485,1.3928298950195312,1.7402262687683105,6.1999999999999975,0.21407604217529297,13.4,123,100,23
267,2.2565258377011825,1.5707963267948966,2.1692152202734336,2.0786731243133545,1.2594536542892456,6.499999999999997,0.21674394607543945,9.2,60,49,11
268,0.507098504392337,0.6435011087932845,0.4398425828157363,2.4837497156113386,1.037669900804758,7.699999999999997,0.21933698654174805,12.2,113,96,17
269,1.1638255414261254,1.2226303055219363,0.9056936403254024,0.8911671340465546,0.5141610251739621,4.399999999999999,0,10.3,50,44,7
270,0.8760580505981934,0.16069065295191054,0.8760580505981934,3.2967798709869385,1.014746781438589,6.799999999999997,0.16449189186096191,13.6,108,93,15
271,0.41368921327886343,0.020001333573390494,1.0121970114513343,1.5609222650527954,1.0266818720847368,6.1999999999999975,0.21121907234191895,22.5,105,90,15
272,1.4965528751433153,1.5707963267948966,1.4168516623365468,1.1113307476043701,0.7028183937072754,6.499999999999997,0.22017502784729004,14.3,121,106,15
273,2.163493731529959,0.08008558003365902,1.6308743170962838,2.2704895734786987,1.486868143081665,6.499999999999997,0.16390609741210938,11.0,111,96,15
274,0.8936687542579046,0.5468509506959441,1.9064348771225055,2.183096766471863,2.089771866798401,6.799999999999997,0.20864486694335938,10.7,103,91,12
275,0.2782996590051114,0,0.2782996590051114,0.6735914945602417,0.6790549159049988,3.1999999999999993,0,3.7,18,19,0
276,0.5280744484263598,1.1680804852142352,1.7506498265873751,0.9442602694034576,1.483781261369586,7.099999999999997,0.16093993186950684,16.2,109,93,16
277,0.7963867320801821,0.060036058445278435,0.9484934556076894,2.058713912963867,1.1126007959246635,6.1999999999999975,0.20560097694396973,120.6,126,111,15
278,0.5543074962015514,0.5468509506959441,0.4899573262537284,2.045569960027933,0.8610764443874359,7.099999999999997,0.19405198097229004,13.0,99,86,13
279,1.0986743443911198,0.32572948729463025,0.8288490587889792,1.0,3.226477265357971,6.799999999999997,0.19934892654418945,16.2,103,87,16
280,0.9162255594715053,0.833070358341648,0.9140946646754625,1.4523842334747314,0.7232137471437454,6.1999999999999975,0.21388792991638184,13.600000000000001,90,77,13
281,0.5754246505352849,1.1680804852142357,0.4228539261329407,1.4812282212078571,1.5098282098770142,6.1999999999999975,0.20893001556396484,17.099999999999998,110,94,16
282,0.7576275268040273,0.36826789343663996,0.830144394852064,1.465872049331665,1.400348573923111,7.399999999999997,0.20783209800720215,19.9,78,66,12
283,0.3217505543966422,0.24236585103896321,0.26448838254923257,1.354859858751297,2.0001397132873535,7.099999999999997,0.21345996856689453,16.0,99,81,18
284,0.5880026035475678,0.6435011087932843,0.0,0.9633418545126915,1.0,7.099999999999997,0.20572996139526367,21.099999999999994,91,77,14
285,1.2537405735857496,0.020001333573390494,0.7012599228662775,1.8945627808570862,2.0279356241226196,6.499999999999997,0.22349214553833008,16.6,108,89,19
286,0.8519663271732721,0,0.8519663271732721,1.0,2.0350909754633904,6.499999999999997,0.19420790672302246,11.9,78,66,12
287,0,0,0,0,0,0,0,0,0,0,0
288,2.2343520531724277,1.5707963267948966,1.365053715396861,1.5878715515136719,1.5872939825057983,6.799999999999997,0.18741393089294434,14.2,92,81,11
289,1.0824623757384912,0.4555986733958235,0.833903775637832,1.4962059259414673,1.7601834535598755,6.499999999999997,0.13722586631774902,22.299999999999997,138,122,16
290,0.28123220191829523,0.47799519851895234,0.07485984771076688,3.2838205695152283,1.632906436920166,6.499999999999997,0.2200758457183838,13.100000000000001,94,80,14
291,0.5364354576047313,0.9272952180016121,0.26060239174734107,0.9428924322128296,1.6791698932647705,6.499999999999997,0.21624207496643066,11.9,96,85,11
292,1.5707963267948966,1.5707963267948966,0.7649928327109102,0.9096983671188354,0.5576576814055443,6.799999999999997,0.19677114486694336,21.299999999999994,81,68,13
293,1.4627846020948503,0.020001333573390494,2.4719537079131557,1.00462378654629,2.3023312091827393,6.1999999999999975,0.20319104194641113,10.7,89,72,17
294,0.12435499454676145,0,0.12435499454676145,0.5,0.14462995529174805,2.8999999999999995,0,13.399999999999997,16,17,0
295,0.2551823906208184,0.04001067435398893,0.2397431088704566,1.4525685608386993,1.853488564491272,6.799999999999997,0.16237998008728027,28.299999999999994,89,77,12
296,0,0,0,0,0,0,0,0,0,0,0
297,1.290688351496843,1.5707963267948966,1.9222411207984482,1.0906358063220978,1.5080596208572388,7.099999999999997,0.15493202209472656,11.5,106,88,18
298,0,0,0,0,0,0,0,0,0,0,0
299,2.5722794624891314,1.5707963267948966,2.0344439357957027,1.4088182523846626,1.3172961175441742,7.399999999999997,0.20168018341064453,15.5,99,85,14
300,0.7464568203004093,1.5707963267948966,1.1626472230398075,2.4946159021928906,1.047130212187767,6.799999999999997,0.20983004570007324,14.4,124,107,17
301,0.3366748193867272,0.2630222029084689,0.40122879900484887,1.9419891387224197,0.6594787985086441,7.099999999999997,0.20133185386657715,14.7,61,46,15
302,2.8590377011202057,0,2.8674252024701343,1.0,2.6367263793945312,6.499999999999997,0.19435405731201172,12.600000000000001,94,79,15
303,1.1875121790492111,1.5707963267948966,0.7853981633974486,4.211595773696899,0.8159041553735733,6.499999999999997,0.20537614822387695,10.5,113,99,14
304,0.3339450718448941,0.32572948729463025,0.5971766580926776,1.3550718426704407,2.0402086973190308,6.499999999999997,0.19986796379089355,13.1,99,82,17
305,1.1902899496825319,1.5707963267948966,1.0873493252276978,1.2369629889726639,1.0572348199784756,6.499999999999997,0.2076549530029297,14.3,94,78,16
306,0.8721365020734335,0.3046926540153976,0.3507279482482036,1.5112781897187233,1.448043167591095,6.499999999999997,0.19271612167358398,16.0,74,63,11
307,0.6327488350021833,0.570437109399922,0.41822432957922917,0.9032899439334869,1.9674865007400513,6.499999999999997,0.2070620059967041,12.4,100,85,15
308,1.1731683352727673,0.060036058445278435,0.7727406115633964,0.7978416532278061,2.0,7.099999999999997,0.2011561393737793,25.499999999999993,80,65,15
309,0.7209713239718948,0,0.4124104415973874,1.458304762840271,1.382688045501709,6.499999999999997,0.21727681159973145,15.3,67,53,14
310,0.7551044034786732,0.32572948729463025,0.3851575063634742,1.5739442110061646,3.742051362991333,6.799999999999997,0.21483993530273438,25.099999999999998,115,93,22
311,0.9272952180016122,0.433445320069886,0.75415832996718,1.352371335029602,1.7671869993209839,6.799999999999997,0.18749213218688965,13.8,104,90,14
312,1.06369782240256,1.5707963267948966,0.523919347685199,1.2512320578098297,1.0266916658729315,6.799999999999997,0.2113330364227295,22.299999999999997,120,103,17
313,0.38050637711236485,0.5006547124045881,0.5404195002705843,1.018371045589447,1.0134895332157612,6.499999999999997,0.19138193130493164,331.0,62,53,9
314,1.0232340908548991,0,0.3416154906478072,2.0553027391433716,0.9780772533267736,6.1999999999999975,0.22109293937683105,24.299999999999997,78,72,6
315,0.9765826229944627,1.1680804852142348,0.6316906343389693,2.308858633041382,1.5611583776772022,6.499999999999997,0.2079160213470459,9.5,80,66,14
316,0.28123220191829523,0.36826789343663996,0.11848995915813774,0.8305748403072357,1.7677044868469238,6.799999999999997,0.2087721824645996,11.9,94,76,18
317,0.8519663271732723,0,0.8519663271732723,1.5,0.7570467293262482,7.399999999999997,0.20686984062194824,120.9,101,83,18
318,0,0,0,0,0,0,0,0,0,0,0
319,1.781889660017643,0.1606906529519106,0.44441920990109895,2.2076237201690674,1.134038731455803,6.799999999999997,0.21160411834716797,17.3,120,104,16
320,1.9693187724613166,0,1.7102363838862342,2.9960779938846827,2.109368145465851,6.499999999999997,0.21385598182678223,14.1,115,98,17
321,0,0,0,0,0,0,0,0,0,0,0
322,0.46364760900080615,0.24236585103896327,0.41822432957922917,3.255348563194275,2.5651051998138428,7.099999999999997,0.21320009231567383,13.7,107,85,22
323,0,0,0,0,0,0,0,0,0,0,0
324,0.4825132950224769,0.04001067435398893,0.6327488350021833,1.9388747215270996,1.999123215675354,6.499999999999997,0.20380711555480957,9.7,80,67,13
325,0,0,0,0,0,0,0,0,0,0,0
326,0.7853981633974484,1.5707963267948966,0.7036137827794523,1.089097023010254,0.6773643791675568,6.499999999999997,0.21206212043762207,20.399999999999995,88,76,12
327,0.3028848683749714,0.1809864512465477,0.5585993153435624,1.0,1.4277165830135345,6.1999999999999975,0.16218209266662598,12.600000000000001,73,63,10
328,0,0,0,0,0,0,0,0,0,0,0
329,0.8760580505981935,0.9272952180016121,0.5317240672588056,1.8821254670619965,1.1292697191238403,6.499999999999997,0.1608719825744629,13.4,111,92,19
330,0.45471927482096935,0.14046141470985582,0.45471927482096935,1.8459012508392334,1.202026903629303,6.799999999999997,0.22397994995117188,17.7,101,86,15
331,0.7209713239718948,0.020001333573390494,0.6435011087932846,1.994800627231598,1.3004399538040161,6.799999999999997,0.21194100379943848,16.5,126,104,22
332,0.5543074962015513,0,0.35877067027057236,1.2760754823684692,1.0236081294715405,7.099999999999997,0.19417619705200195,21.499999999999996,96,79,17
333,1.017502001472604,0.6435011087932845,0.8760580505981934,1.3231966495513916,2.4016454219818115,6.799999999999997,0.2137160301208496,12.0,93,79,14
334,0.3392926144540448,0,0.03123983343026818,1.9375234842300415,2.376299738883972,6.799999999999997,0.21088099479675293,19.999999999999996,94,80,14
335,2.209116134803942,1.5707963267948966,1.9064348771225055,1.1200021505355835,1.0874770060181618,6.799999999999997,0.2059469223022461,27.39999999999999,120,100,20
336,1.5707963267948966,0.18098645124654775,1.0138948026893106,1.2442253232002258,1.0820976123213768,6.799999999999997,0.22393298149108887,12.7,78,60,18
337,0,0,0,0,0,0,0,0,0,0,0
338,0.37527082285595736,0.8330703583416478,0.10768987083282061,1.1760227978229523,0.7910845279693604,6.499999999999997,0.20551800727844238,14.9,74,63,11
339,0.48344700156719905,0.9614110187641013,0.24497866312686414,2.433691143989563,0.867679089307785,6.499999999999997,0.2122969627380371,10.4,65,54,11
340,0.40814910375508934,0,0.09495170634275642,0.5104268426075578,1.049320638179779,6.499999999999997,0.21367597579956055,22.299999999999997,81,68,13
341,0,0,0,0,0,0,0,0,0,0,0
342,0.7576275268040275,0.8946658172342357,0.575424650535285,3.1821653097867966,2.0154396798461676,7.099999999999997,0.20313000679016113,34.499999999999986,123,102,21
343,0,0,0,0,0,0,0,0,0,0,0
344,1.70119963468403,1.5707963267948966,1.9655874464946579,1.2981528639793396,1.623711347579956,6.499999999999997,0.2105088233947754,14.0,90,78,12
345,0.5404195002705842,0.6435011087932844,0.2782996590051114,2.1617666482925415,1.7024502754211426,6.799999999999997,0.2117300033569336,13.0,104,86,18
346,1.8622531212727635,0.9272952180016123,1.0873493252276978,1.5,2.1612902879714966,6.799999999999997,0.19092702865600586,11.2,98,81,17
347,1.1626472230398075,0,1.0007558630951867,0.657441645860672,1.6561503410339355,6.799999999999997,0.19409990310668945,23.199999999999996,121,103,18
348,0.7140906986121581,0.020001333573390494,0.4048917862850835,2.0073803663253784,1.3776097893714905,6.499999999999997,0.1988370418548584,18.5,87,72,15
349,0,0,0,0,0,0,0,0,0,0,0
350,2.425050979493389,1.5707963267948966,2.5478429868790218,1.6836106777191162,1.47834050655365,6.499999999999997,0.2084338665008545,11.2,92,79,13
351,1.31910635503671,0,0.7066142024083045,0.6188123226165771,0.9557488448917866,6.499999999999997,0.219818115234375,17.3,72,60,12
352,1.9347752833045406,0.08008558003365902,1.1525719972156674,1.6490843296051025,1.2693244218826294,6.499999999999997,0.20234203338623047,14.1,97,79,18
353,2.3435369383582927,1.5707963267948966,1.9832067683922836,1.4794336035847664,0.7318669408559799,6.1999999999999975,0.21311092376708984,318.7,77,66,11
354,1.4135682758183277,0.1001674211615598,1.118642464509121,1.0732189416885376,1.9807279109954834,6.499999999999997,0.21576404571533203,17.299999999999997,80,68,12
355,0,0,0,0,0,0,0,0,0,0,0
356,0.6510767214444799,0.41151684606748806,0.6510767214444799,1.3664954900741577,2.087939739227295,6.499999999999997,0.23114013671875,13.9,101,84,17
357,0.3805063771123649,0.41151684606748806,0.44441920990109895,1.2054908275604248,1.3351640701293945,6.499999999999997,0.21741199493408203,11.3,79,69,10
358,1.5422326689561365,0.7477626346599205,0.7205541358442416,2.032240629196167,0.9888867409899831,6.1999999999999975,0.2171931266784668,17.400000000000002,103,88,15
359,0.1037923404570428,0.10016742116155981,0.1037923404570428,1.0620616227388382,1.293819010257721,6.499999999999997,0.1901540756225586,14.1,80,71,9
360,0.3347368373168147,0.16069065295191062,0.31290122788038444,0.8479985743761063,1.0,6.799999999999997,0.2106490135192871,26.299999999999994,82,69,13
361,3.050932766389048,0.16069065295191057,1.8622531212727635,1.2446022033691406,1.039389569312334,6.799999999999997,0.19897890090942383,14.8,87,72,15
362,0.5191461142465229,0.1001674211615598,0.2837941092083278,0.8203307390213013,2.2971444129943848,6.799999999999997,0.20248889923095703,24.999999999999996,106,88,18
363,1.4432867685796584,0,1.2187520124794795,1.1108329892158508,1.4160676002502441,6.799999999999997,0.22324299812316895,15.3,93,73,20
364,3.0309354324158972,0.04001067435398893,2.666581897324696,1.9590846300125122,2.8718807697296143,7.099999999999997,0.21185994148254395,15.0,105,89,16
365,0.33787818824027843,0.14046141470985576,0.17593962545252784,1.7909122109413147,0.5,6.499999999999997,0.2173020839691162,10.2,79,64,15
366,0.5880026035475677,0.08008558003365902,0.1973955598498807,1.5883147716522217,1.6293435096740723,7.399999999999997,0.2059638500213623,25.099999999999994,110,90,20
367,0.6747409422235527,0.26302220290846895,0.5585993153435626,1.9198486804962158,1.0418263897299767,6.499999999999997,0.2098979949951172,10.9,89,75,14
368,0.4366271598135413,0.22181447049679442,0.4434483364197382,2.3017168045043945,0.918088398873806,6.799999999999997,0.21616005897521973,13.5,84,71,13
369,0.36120375549368167,0.5235987755982988,0.13432144195296844,1.2722451090812683,1.4787998273968697,7.099999999999997,0.16721200942993164,18.999999999999996,97,82,15
370,0.5561662301204531,0.45559867339582344,0.12062366858010282,1.9975477457046509,1.4685290083289146,6.499999999999997,0.29590392112731934,11.0,83,71,12
371,1.1071487177940904,0.1001674211615598,0.4527784718235359,1.3536377996206284,1.484247650951147,6.799999999999997,0.21158504486083984,26.499999999999993,85,70,15
372,0.6304014214735074,0.060036058445278435,0.2914567944778674,1.952706217765808,3.292276382446289,6.499999999999997,0.19130301475524902,13.9,108,85,23
373,0,0,0,0,0,0,0,0,0,0,0
374,0.9420000403794639,0.1001674211615598,2.961739153797316,1.047050341963768,1.1327438354492188,6.799999999999997,0.22133207321166992,23.699999999999996,99,83,16
375,0.26448838254923257,0.14046141470985582,0.37527082285595736,0.6973413825035095,1.7795764207839966,6.799999999999997,0.22204899787902832,12.5,85,74,11
376,0.29544083714372,0.2837941092083278,0.15101534292135937,1.122039258480072,0.9622456431388855,6.499999999999997,0.2207930088043213,13.1,93,79,14
377,0.556166230120453,0.28379410920832787,0.09495170634275636,0.9829433560371399,1.5662699937820435,7.099999999999997,0.19564294815063477,14.0,109,87,22
378,0.5404195002705843,0.6435011087932844,0.2561513825656035,1.0322698168456554,1.0,7.099999999999997,0.19864487648010254,32.599999999999994,95,76,19
379,1.6191457134467993,0,2.1722510336551695,1.0397311449050903,1.2589833438396454,6.799999999999997,0.19446802139282227,13.1,91,77,14
380,0.5779019369622458,0.18098645124654775,0.6316906343389694,1.8157979100942612,1.4963293075561523,6.799999999999997,0.20165801048278809,14.100000000000001,99,82,17
381,1.0636978224025597,0.10016742116155979,0.9526521008597095,1.0124406889081001,1.1299378871917725,7.099999999999997,0.19626307487487793,18.799999999999997,67,55,12
382,0.7431697612844463,0.060036058445278435,0.5724598138180512,1.6242619156837463,2.345258951187134,6.1999999999999975,0.2081902027130127,13.0,89,72,17
383,0.7509290623979403,0.28379410920832787,0.21406068356382155,1.0296152103692293,0.5,6.499999999999997,0.1974780559539795,20.299999999999997,76,64,12
384,0.15431877592611903,0.16069065295191062,0.04441521524691084,2.3872262239456177,0.9795606136322021,6.499999999999997,0.21940398216247559,12.9,92,75,17
385,0.6125375566103034,0.060036058445278435,1.723445655190162,1.0851299166679382,1.6413219422101974,6.799999999999997,0.15680480003356934,11.9,81,71,10
386,0.5942137038004339,0.36826789343663996,0.40122879900484887,1.0015599384205416,0.8311435282230377,5.299999999999998,0,12.100000000000001,68,60,9
387,0.380506377112365,0,0.06053201978210715,0.9264494478702545,1.6445616483688354,6.499999999999997,0.21290206909179688,18.9,92,75,17
388,0.45471927482096935,0.6187286906722512,0.8086497862079113,1.214958295226097,2.281421959400177,6.499999999999997,0.20714902877807617,17.3,87,74,13
389,0.48995732625372834,1.1197695149986346,0.44751997515717007,0.8340016305446625,1.3385818600654602,7.099999999999997,0.20016694068908691,22.299999999999997,96,81,15
390,0.26625204915092543,0.14046141470985576,0.15101534292135937,1.0684595704078674,0.656668484210968,6.799999999999997,0.19599318504333496,124.6,78,66,12
391,0.6470471932203232,0.4115168460674882,0.6470471932203232,1.4868112802505493,0.6794525980949402,6.499999999999997,0.2198619842529297,14.4,102,81,21
392,0.661043168850687,0.08008558003365902,0.5543074962015513,1.3155712485313416,1.8796249032020569,6.799999999999997,0.21725988388061523,32.69999999999999,91,75,16
393,1.4204248987877621,1.5707963267948966,1.169567527790048,1.264615535736084,1.2735327780246735,7.099999999999997,0.21491098403930664,13.0,76,60,16
394,0.2782996590051114,0,0.260602391747341,2.321449875831604,1.0549426078796387,6.499999999999997,0.20907998085021973,9.7,72,61,11
395,0.6857295109062864,0,0.9827937232473293,1.0080755949020386,0.7561498284339905,6.799999999999997,0.20448899269104004,18.599999999999998,77,61,16
396,0.8760580505981934,0.3046926540153976,1.9451299428024804,1.2025372982025146,1.5292853713035583,6.799999999999997,0.14542818069458008,26.399999999999995,65,49,16
397,1.5707963267948966,0.4555986733958234,0.6747409422235527,2.0,2.6351689100265503,6.499999999999997,0.20342302322387695,11.0,88,75,13
398,0.7853981633974483,0.18098645124654775,0.45384400152151017,0.8620526343584061,1.859673947095871,7.099999999999997,0.20692706108093262,16.5,82,69,13
399,0.9272952180016124,0.5006547124045881,0.48088728019533583,0.6710340082645416,1.1244472861289978,6.499999999999997,0.21726298332214355,16.7,62,52,10
400,0,0,0,0,0,0,0,0,0,0,0
401,0.9025069079643129,1.5707963267948966,0.8913825213870483,2.0697067975997925,0.5517715737223625,6.499999999999997,0.20711517333984375,24.599999999999998,120,101,19
402,0.28473043852271224,0.24236585103896327,0.12062366858010276,2.0271613616496325,1.5160882379859686,6.499999999999997,0.2106010913848877,11.399999999999999,78,65,13
403,1.8209968745725373,0.020001333573390494,2.0778948311872334,2.488568663597107,1.4593216702342033,6.499999999999997,0.2113199234008789,11.6,100,88,12
404,1.042721878368537,0.3046926540153976,0.5880026035475675,1.4331895112991333,1.3205090761184692,7.099999999999997,0.2045600414276123,14.3,81,63,18
405,0,0,0,0,0,0,0,0,0,0,0
406,0.5404195002705844,0.08008558003365902,0.3378781882402785,1.4661682546138763,1.2182021886110306,7.399999999999997,0.20702791213989258,12.100000000000001,63,51,12
407,0,0,0,0,0,0,0,0,0,0,0
408,0.7188299996216246,0.45559867339582344,0.6470471932203231,1.3044132888317108,1.4826095011085272,6.499999999999997,0.21583795547485352,11.6,75,61,14
409,1.449444326224133,0.9972832223717996,1.2120256565243244,0.9741486255079508,1.0498258285224438,7.099999999999997,0.1891648769378662,22.799999999999994,102,88,14
410,2.132419826467394,1.1680804852142348,1.2793395323170296,0.7532972544431686,1.5623571872711182,6.799999999999997,0.21095514297485352,9.2,88,74,14
411,0.3995154939993745,0.833070358341648,0.35877067027057225,0.5713770687580109,1.2496489882469177,6.799999999999997,0.21835803985595703,11.8,78,64,14
412,0.714090698612158,0.060036058445278435,0.4048917862850835,1.4582121074199677,0.913860946893692,6.799999999999997,0.20650696754455566,15.3,97,80,17
413,1.0636978224025597,0.2837941092083278,1.033885584054851,0.9424083381891251,1.3948897123336792,6.499999999999997,0.21527695655822754,15.2,99,80,19
414,3.113028995751033,1.5707963267948966,2.666581897324696,0.9255339130759239,0.8143550157546997,6.499999999999997,0.21291899681091309,33.099999999999994,87,71,16
415,0.6478114269270985,0.36826789343664,0.7509290623979404,1.1454616785049438,1.7364606857299805,6.499999999999997,0.19815897941589355,10.2,80,67,13
416,0,0,0,0,0,0,0,0,0,0,0
417,0.6316906343389693,0.30469265401539763,0.8760580505981934,1.598392367362976,2.214590907096863,7.099999999999997,0.20515108108520508,12.2,107,90,17
418,0,0,0,0,0,0,0,0,0,0,0
419,0.9272952180016124,0.5235987755982987,0.8419416003422656,1.3760975003242493,1.9472810626029968,6.499999999999997,0.2086801528930664,14.4,87,74,13
420,0,0,0,0,0,0,0,0,0,0,0
421,0.3947911196997615,0,0.2053953891897674,2.0362342596054077,0.8491460233926773,7.099999999999997,0.21714210510253906,17.6,83,70,13
422,1.0617254383725134,0.2013579207903308,0.45471927482096947,1.0716278851032257,1.279155671596527,7.099999999999997,0.20188498497009277,19.1,105,87,18
423,3.0172376590430314,0,2.8373841592505538,2.6377673149108887,1.7521566152572632,6.799999999999997,0.21480393409729004,21.299999999999997,92,79,13
424,1.517084597491664,1.5707963267948966,1.4004212161322807,3.1300973892211914,1.0,6.799999999999997,0.21720314025878906,10.7,94,77,17
425,0.7431697612844466,0.9614110187641017,0.7853981633974485,2.232649326324463,1.6151232346892357,6.499999999999997,0.16978788375854492,11.1,87,71,16
426,0.8148014516014536,0.04001067435398893,1.31910635503671,1.2844680547714233,2.157878279685974,6.499999999999997,0.26688599586486816,12.1,94,79,15
427,0.9827937232473293,1.2870022175865694,0.9140946646754625,1.0,1.2163207530975342,7.099999999999997,0.2232367992401123,13.0,81,66,15
428,0.24497866312686425,0.080085580033659,0.26396372362570464,1.7121002078056335,1.6935209035873413,7.099999999999997,0.15460515022277832,18.6,87,68,19
429,1.0475180046629213,0.5943858000010622,0.48088728019533583,2.5882022380828857,1.1713504642248154,7.099999999999997,0.19750213623046875,25.299999999999997,91,74,17
430,0.8288490587889792,0.2218144704967944,0.37298772180006107,0.8304646611213684,1.1287457793951035,6.1999999999999975,0.20618295669555664,30.39999999999999,100,86,14
431,2.1112158270654797,1.5707963267948966,1.5707963267948961,2.006956100463867,1.053047239780426,6.799999999999997,0.20886898040771484,14.2,110,88,22
432,0.9025069079643127,0.7477626346599207,1.0659349551357704,1.000428834639024,1.3100453615188599,7.399999999999997,0.21434283256530762,13.0,82,66,16
433,0,0,0,0,0,0,0,0,0,0,0
434,1.4876550949064553,1.2870022175865687,1.231503712340852,2.4411009550094604,1.7996842861175537,6.799999999999997,0.21050405502319336,15.0,109,91,18
435,0.4899573262537283,0.12028988239478809,0.4527784718235359,0.6897502541542053,1.9285356998443604,7.099999999999997,0.19967007637023926,12.6,93,77,16
436,0.689800044733608,0,0.11065722117389548,2.3824989795684814,0.5534902811050415,6.499999999999997,0.21764492988586426,21.299999999999997,86,69,17
437,0,0,0,0,0,0,0,0,0,0,0
438,0.5162306706117478,0.1809864512465477,0.04758310327698358,1.4662759900093079,0.8682211637496948,6.499999999999997,0.21949005126953125,17.6,77,64,13
439,0.6327488350021833,1.1680804852142348,0.5880026035475676,1.5384772457182407,1.1808840036392212,7.099999999999997,0.2045731544494629,226.0,102,84,18
440,0.5724598138180512,0.47799519851895245,0.76101275422473,1.0266278386116028,0.9626075923442841,6.799999999999997,0.1995861530303955,13.9,102,80,22
441,0,0,0,0,0,0,0,0,0,0,0
442,0.17219081452293908,0.12028988239478806,0.0,1.5442602634429932,2.5541179180145264,6.799999999999997,0.20489096641540527,11.4,71,56,15
