Episode_number,yaw,pitch,roll,max_x,max_y,height,max_time,total_reward,steps,explore,exploit
0,0,0,0,0,0,0,0,0,0,0,0
1,1.7196862744043935,1.5707963267948966,2.7828219833192214,5.153461456298828,3.521398901939392,2.0,0,-3889.3,326,287,40
2,1.795507495209539,1.5707963267948966,1.7818896600176428,3.6380412578582764,2.8478108644485474,3.499999999999999,0,24.9,1000,647,353
3,2.0123147519489026,1.5707963267948966,1.4778968016814824,2.477518230676651,2.6200209856033325,2.3,0,-292.0,201,189,13
4,1.6815552670204201,0.06003605844527842,1.6660486042136629,1.9904946386814117,3.741079807281494,3.1999999999999993,0,-1442.0,319,274,46
5,2.761086276477428,1.5707963267948966,2.7868870015788527,3.1846251487731934,2.9890629053115845,3.499999999999999,0,32.5,1000,633,367
6,2.158798930342464,1.5707963267948966,1.580419826726203,4.82899808883667,2.405496597290039,6.499999999999997,0.214216947555542,29.8,452,381,71
7,0.21866894587394198,0.22181447049679445,0.21866894587394198,3.900984048843384,1.4383553639054298,2.0,0,2.5,69,68,2
8,1.4399689307208396,0.7477626346599212,0.9903981394010225,2.538611888885498,1.3202890753746033,2.3,0,-245.3,166,157,10
9,1.492170869529263,0.8038023189330303,1.3639223778151537,2.55940580368042,2.1027570962905884,7.099999999999997,0.20852017402648926,14.7,192,175,17
10,1.4181469983996315,1.5707963267948966,1.7734549959423727,2.0349812507629395,4.284116506576538,6.1999999999999975,0.21090412139892578,13.9,176,159,17
11,1.8925468811915391,0.16069065295191062,0.12062366858010282,1.6749271154403687,0.7155610918998718,6.799999999999997,0.22488999366760254,10.5,90,83,7
12,1.5896620128165675,0.22181447049679442,1.523661452981396,2.150149941444397,1.3424032330513,6.499999999999997,0.19004082679748535,17.7,194,182,12
13,1.2531609755053659,0.8038023189330301,1.0695320619233142,1.5369056463241577,1.1901519000530243,6.499999999999997,0.14171504974365234,417.2,137,127,10
14,1.828120041765985,1.5707963267948966,1.605869657328122,1.0974368453025818,2.0052198064513505,6.1999999999999975,0.20473599433898926,39.800000000000004,225,208,17
15,1.5257817110203695,0.1202898823947881,1.7041465809664489,1.9271479845046997,1.321819007396698,6.799999999999997,0.19433212280273438,20.6,200,186,14
16,1.3787483095541666,0.8946658172342358,0.5280744484263598,2.4392768144607544,1.0227542463690042,6.1999999999999975,0.2230830192565918,30.299999999999994,156,142,14
17,2.034443935795703,0.24236585103896321,2.936197264400026,1.5654157772660255,2.500712275505066,6.799999999999997,0.19888997077941895,15.6,151,140,11
18,0,0,0,0,0,0,0,0,0,0,0
19,1.313472611823808,0.2837941092083278,2.6516353273360647,1.7421579957008362,3.0314407348632812,6.799999999999997,0.20735597610473633,22.1,212,197,15
20,0,0,0,0,0,0,0,0,0,0,0
21,1.8018869939907933,0.20135792079033082,1.8457061682755689,1.8392243385314941,1.9203530550003052,6.1999999999999975,0.20239496231079102,18.4,176,161,15
22,0,0,0,0,0,0,0,0,0,0,0
23,1.883697554675281,1.5707963267948966,1.5042281630190728,2.127980351448059,1.9007183909416199,6.799999999999997,0.1973121166229248,25.4,190,168,22
24,1.3473197256542637,0.1606906529519106,1.2838575738641274,4.016710996627808,1.250846266746521,6.499999999999997,0.208021879196167,10.2,125,114,11
25,2.1448757794660893,1.5707963267948966,1.6206165628050906,3.33854341506958,2.266917586326599,6.499999999999997,0.21272897720336914,-178.1,187,170,17
26,2.1147661080068945,0.9972832223717996,1.2523460904487416,2.502641201019287,1.0736237540841103,7.099999999999997,0.1704850196838379,19.4,140,131,9
27,1.5311345968717691,1.5707963267948966,1.1505996131856215,1.2501643300056458,0.5434109531342983,6.799999999999997,0.19569993019104004,18.9,146,133,13
28,1.129616846379916,0.411516846067488,2.0344439357957023,1.337918072938919,1.1426779627799988,6.499999999999997,0.15188193321228027,15.2,107,100,7
29,1.9944652486724126,0,2.092630606609307,1.7294102311134338,1.7778192162513733,7.099999999999997,0.16261911392211914,12.2,127,117,10
30,1.8442573138851408,1.5707963267948966,1.786881299091683,2.6774160861968994,3.1022324562072754,6.1999999999999975,0.20738792419433594,-178.8,240,216,24
31,2.0227826568322813,1.5707963267948966,1.4646395252822604,1.3180731534957886,2.1136341094970703,6.499999999999997,0.19742393493652344,18.8,178,159,19
32,1.6642731079534858,1.5707963267948966,2.390663591191853,1.4260174036026,2.0292625427246094,6.1999999999999975,0.19221091270446777,13.0,171,158,13
33,0.5754246505352849,0,0.3416154906478072,0.5572824440896511,1.8976073563098907,3.1999999999999993,0,17.799999999999997,57,56,2
34,0.7354397676755057,0,0.6823165548747483,2.4532294273376465,2.2030787467956543,6.499999999999997,0.21180009841918945,25.4,162,151,11
35,1.5350972141155723,0.24236585103896327,0.37298772180006107,1.0386123061180115,2.9302449226379395,2.0,0,2.5999999999999996,39,39,1
36,1.0916860327345053,0.6687427032023717,1.9437840485949573,2.17062771320343,0.8009958863258362,7.099999999999997,0.2130110263824463,15.999999999999998,167,155,12
37,0,0,0,0,0,0,0,0,0,0,0
38,1.5707963267948966,0.04001067435398893,1.8490959858000087,2.4824137687683105,3.7782669067382812,6.499999999999997,0.20839190483093262,15.7,179,163,16
39,0.7853981633974485,0.060036058445278435,0.7717003900245828,1.4787985384464264,2.3373712301254272,6.1999999999999975,0.22611594200134277,19.8,146,128,18
40,1.5964317353165742,1.5707963267948966,1.1646075243758969,2.03337424993515,1.9632473587989807,6.1999999999999975,0.1654369831085205,18.9,177,159,18
41,0.8117078806503707,1.5707963267948966,0.7727406115633966,2.7073570489883423,1.6247456073760986,6.499999999999997,0.2034440040588379,21.799999999999997,122,108,14
42,1.9631364710104122,1.5707963267948966,2.0005586058915847,4.2811973094940186,1.0393065810203552,7.099999999999997,0.15627694129943848,30.39999999999999,138,124,14
43,0.260602391747341,0.060036058445278435,0.23374318086890145,1.613996982574463,0.6758309751749039,4.999999999999998,0,14.6,53,51,3
44,1.9756881130799793,0,1.735945004209523,1.8269569873809814,1.635546252131462,7.099999999999997,0.18474197387695312,26.099999999999998,157,138,19
45,0.3392926144540448,0.020001333573390494,0.06114816264930122,1.0,1.0695640444755554,2.0,0,1.5,22,23,0
46,1.5993599846336566,0.04001067435398893,1.65270222886083,1.6058995723724365,1.2867872714996338,6.799999999999997,0.21297812461853027,21.4,198,178,20
47,1.999574354240913,0.5468509506959444,1.3489015856583335,1.8533929586410522,3.0820741653442383,6.499999999999997,0.20803499221801758,18.1,138,118,20
48,1.473069419436178,0.6435011087932845,0.04441521524691072,2.689189076423645,1.794901967048645,6.499999999999997,0.19247102737426758,22.5,169,152,17
49,1.312025434831199,1.5707963267948966,1.017502001472604,1.3142396211624146,1.4455471634864807,6.499999999999997,0.2188429832458496,19.5,110,101,9
50,1.9922155336827008,1.5707963267948966,1.5804734440620474,2.6839884519577026,3.9028522968292236,6.1999999999999975,0.26721692085266113,19.8,212,191,21
51,0.5585993153435626,0.9272952180016121,0.26060239174734107,0.5267201364040375,0.6090454012155533,2.5999999999999996,0,11.399999999999997,56,55,2
52,1.3218336210021797,1.1197695149986353,2.356194490192345,2.0142321586608887,1.837050974369049,7.099999999999997,0.21434307098388672,38.89999999999999,213,187,26
53,0,0,0,0,0,0,0,0,0,0,0
54,1.4559197213779975,1.5707963267948966,1.332187004286696,1.3156197667121887,2.226733446121216,6.499999999999997,0.21432280540466309,38.69999999999999,190,171,19
55,0.8441539861131712,0.08008558003365902,0.4444192099010989,2.4089118242263794,2.64834001660347,6.1999999999999975,0.21999096870422363,10.5,101,91,10
56,1.2782345603910492,0.3257294872946302,1.142310099749119,1.0828424096107483,2.1745857894420624,6.499999999999997,0.2068791389465332,21.0,182,165,17
57,3.141592653589793,0,3.141592653589793,1.3658510148525238,2.535767078399658,6.499999999999997,0.2145240306854248,10.4,92,88,4
58,0,0,0,0,0,0,0,0,0,0,0
59,0.6857295109062864,1.5707963267948966,0.0554985052457169,2.310002565383911,1.09498780220747,6.499999999999997,0.21679091453552246,22.599999999999998,116,102,14
60,1.3886280163221332,0.5704371093999221,1.252141737738804,3.3700098991394043,1.1265648007392883,6.499999999999997,0.15801620483398438,33.39999999999999,167,146,21
61,0,0,0,0,0,0,0,0,0,0,0
62,2.0100585266229842,1.5707963267948966,1.9295669970654685,1.9170179516077042,1.2016135156154633,6.499999999999997,0.2242269515991211,28.299999999999997,197,175,22
63,1.590927834925299,0.020001333573390494,1.8299836251471853,1.5718030333518982,1.4948208630084991,6.499999999999997,0.21711206436157227,20.0,158,139,19
64,1.2924966677897853,1.5707963267948966,1.2793395323170296,3.036494731903076,1.4453801289200783,6.1999999999999975,0.17461919784545898,14.2,183,166,17
65,0.10379234045704286,0,0.04441521524691085,1.613728404045105,0.7237986326217651,2.0,0,7.6000000000000005,18,19,0
66,0.5667292175235064,0.22181447049679445,0.3587706702705723,0.6896119564771652,0.5122946044430137,2.3,0,-267.9,61,59,3
67,3.098141758198263,1.5707963267948966,1.590274382611424,1.5227011442184448,2.173271417617798,6.799999999999997,0.2167949676513672,15.9,164,141,23
68,1.7126933813990604,1.5707963267948966,1.4784669920632976,1.7235347479581833,1.737024188041687,6.799999999999997,0.19394588470458984,23.5,164,147,17
69,1.3876855095324125,0.32572948729463,2.4668517113662407,2.5081470012664795,1.8675332069396973,5.599999999999998,0,8.5,100,95,6
70,1.5707963267948963,0,2.173083672929861,1.6600692868232727,1.9377853870391846,6.799999999999997,0.20963406562805176,22.099999999999998,207,188,19
71,1.6951513213416578,1.5707963267948966,2.062605502783595,0.7979806810617447,2.443306803703308,6.499999999999997,0.19950008392333984,27.999999999999993,144,132,12
72,2.866682812109121,1.5707963267948966,2.6954871046463897,1.3870505467057228,1.2433826923370361,6.799999999999997,0.21674799919128418,25.299999999999997,173,150,23
73,1.289317028266854,1.5707963267948966,1.138388551224359,2.6892576217651367,1.0333897471427917,7.099999999999997,0.22951889038085938,15.0,152,131,21
74,0.6747409422235527,1.5707963267948966,0.2889754099925665,1.5677975416183472,2.1048574447631836,6.499999999999997,0.21663284301757812,16.0,140,126,14
75,2.302192989816376,1.5707963267948966,2.297438667476622,1.5,2.8595381379127502,6.499999999999997,0.21218085289001465,18.1,201,174,27
76,1.6761737659838392,1.5707963267948966,2.462765932263223,0.9536834582686424,2.869324266910553,6.499999999999997,0.1948091983795166,11.4,107,96,11
77,0,0,0,0,0,0,0,0,0,0,0
78,0.9505468408120751,0,1.9222411207984482,2.33556592464447,3.2137339115142822,6.799999999999997,0.1917409896850586,13.8,127,115,12
79,1.4266419396817425,0.020001333573390494,1.6692424860075297,0.7301106601953506,1.51632821559906,6.499999999999997,0.22242212295532227,12.9,96,89,7
80,0,0,0,0,0,0,0,0,0,0,0
81,1.659452208662334,1.5707963267948966,1.2256386769522285,2.317134380340576,1.7816438674926758,6.799999999999997,0.20206689834594727,11.4,150,135,15
82,1.3494818844471055,0.06003605844527845,3.0560873599115883,1.1786137819290161,1.0,6.499999999999997,0.21448111534118652,17.7,142,128,14
83,1.2442148921042782,0.1001674211615598,1.1999050379822342,1.2145413011312485,2.7040789127349854,6.499999999999997,0.21553277969360352,14.600000000000001,123,112,11
84,1.9347752833045406,0.08008558003365902,1.4039411663951076,3.067850351333618,2.4280669689178467,6.1999999999999975,0.22587800025939941,11.5,119,107,12
85,1.6295521495106193,1.5707963267948966,2.0736395377227574,1.079971432685852,1.0,7.399999999999997,0.19718289375305176,29.79999999999999,121,101,20
86,0.9994588469612699,0.26302220290846895,2.034443935795703,1.2740904986858368,1.6470520496368408,6.499999999999997,0.2118968963623047,21.999999999999996,142,126,16
87,0,0,0,0,0,0,0,0,0,0,0
88,1.2490457723982544,1.5707963267948966,1.1618884978439712,1.982134222984314,2.300973057746887,6.499999999999997,0.19213604927062988,23.4,162,142,20
89,1.3644724327651792,0,1.182477608622431,5.672750949859619,1.1843859404325485,6.499999999999997,0.22422504425048828,15.3,164,147,17
90,1.587188301102902,1.5707963267948966,1.3749274833160778,2.213841676712036,2.02195405960083,6.499999999999997,0.20854496955871582,18.8,149,135,14
91,0.5404195002705843,0,1.9347752833045404,0.8421177864074707,4.316729307174683,6.799999999999997,0.2122797966003418,18.9,121,109,12
92,0.5317240672588056,0.5468509506959441,1.1760052070951352,2.403254508972168,1.3967502415180206,6.799999999999997,0.21233010292053223,13.7,115,102,13
93,0.8934098880974946,1.5707963267948966,2.1112158270654797,1.3664603233337402,2.6314128637313843,6.499999999999997,0.21384906768798828,11.7,139,123,16
94,0.7283173809911837,0.020001333573390494,0.0748598477107669,1.383689358830452,1.032893966883421,6.1999999999999975,0.2083439826965332,14.799999999999995,107,98,9
95,1.3932001595114087,0.6435011087932844,1.2606282660069106,3.103013038635254,2.13657346367836,6.1999999999999975,0.19633197784423828,28.899999999999995,126,113,13
96,1.9264322110956562,1.5707963267948966,1.0906212971913698,1.7733964920043945,3.298147439956665,6.1999999999999975,0.16623210906982422,12.9,132,116,16
97,2.0576955586061656,0,2.646705211158719,0.8562022894620895,1.275652676820755,6.499999999999997,0.21792387962341309,24.799999999999997,134,120,14
98,1.3871740006256164,0.3257294872946301,0.4554510712508935,1.1108527928590775,1.9945105612277985,3.499999999999999,0,6.4,84,81,4
99,2.7049654937762524,0.10016742116155981,2.5899376710612465,2.1724164485931396,3.165346145629883,6.799999999999997,0.21428298950195312,14.0,135,117,18
100,1.0729739941778955,0.04001067435398892,0.9484934556076893,1.7076877355575562,1.2864192128181458,6.499999999999997,0.22689604759216309,12.5,113,100,13
101,1.6262948320406134,1.5707963267948966,1.6262948320406134,0.9955775500275195,3.85578989982605,6.499999999999997,0.2094111442565918,10.9,121,109,12
102,1.5707963267948966,1.5707963267948966,1.5707963267948963,1.9646003246307373,2.1577250957489014,7.099999999999997,0.17369794845581055,18.2,142,125,17
103,1.025141272267905,0.20135792079033077,0.855704627516073,1.709790825843811,2.1096643209457397,6.799999999999997,0.22998809814453125,15.0,118,106,12
104,1.675177479745227,1.5707963267948966,1.692415350056243,1.8787842690944672,2.044891595840454,6.1999999999999975,0.22469711303710938,17.299999999999997,127,117,10
105,0.372987721800061,0.34691689752716165,0.0,2.743383765220642,1.576281026005745,6.1999999999999975,0.19530797004699707,12.4,119,107,12
106,0,0,0,0,0,0,0,0,0,0,0
107,1.1441688336680205,0.10016742116155972,0.7205541358442416,2.2662205696105957,1.471209704875946,6.799999999999997,0.21372699737548828,16.700000000000003,113,103,10
108,0.36120375549368167,0.5235987755982988,0.21866894587394198,3.231426954269409,1.1795095652341843,6.499999999999997,0.2212390899658203,11.1,113,102,11
109,1.044169055361146,0,1.39408747072486,0.8657996654510498,1.92811918258667,6.1999999999999975,0.20293092727661133,28.799999999999994,142,124,18
110,0.540419500270584,0.14046141470985582,0.4795192919925962,1.0,1.8279207944869995,6.799999999999997,0.19962215423583984,15.3,113,99,14
111,0,0,0,0,0,0,0,0,0,0,0
112,2.152701444934782,1.5707963267948966,1.7601663767707412,1.4445152878761292,1.811835527420044,7.399999999999997,0.20935797691345215,14.4,124,108,16
113,1.3494818844471055,1.5707963267948966,1.0873493252276978,2.0362576842308044,1.493157982826233,7.099999999999997,0.16886401176452637,30.499999999999993,142,119,23
114,0.5317240672588056,1.5707963267948966,0.7531512809621945,2.2420722246170044,2.0261698961257935,6.799999999999997,0.2160358428955078,12.7,120,107,13
115,1.2827408797442708,0.2423658510389632,0.7853981633974486,1.658897578716278,2.7212796211242676,6.499999999999997,0.21918702125549316,14.0,149,131,18
116,0,0,0,0,0,0,0,0,0,0,0
117,1.2087089191011684,1.5707963267948966,1.6092389168160846,1.2471606135368347,2.7500134706497192,7.099999999999997,0.22404885292053223,17.0,179,153,26
118,0.9272952180016125,0,0.9272952180016125,1.708493947982788,2.0389885902404785,6.499999999999997,0.20231389999389648,13.6,137,117,20
119,1.710075586331743,0.020001333573390494,1.8925468811915387,3.306154489517212,2.1309328079223633,6.499999999999997,0.2119910717010498,15.5,116,99,17
120,1.132459766936939,0.6944982656265561,0.6435011087932845,2.169300377368927,2.177214741706848,6.799999999999997,0.21500301361083984,23.0,128,112,16
121,1.436474884841928,0.2630222029084689,1.9347752833045406,2.5494152940809727,3.2290163040161133,6.799999999999997,0.22440099716186523,19.400000000000002,184,164,20
122,1.2490457723982547,1.5707963267948966,0.6881449651458826,1.6954776644706726,1.3746004104614258,6.499999999999997,0.20795702934265137,12.7,127,113,14
123,1.5707963267948966,0.12028988239478809,0.3016190462662397,1.518694844096899,2.041122317314148,6.799999999999997,0.21253204345703125,13.5,85,73,12
124,1.5707963267948963,1.5707963267948966,1.8313987185422373,3.541567802429199,1.2540267407894135,6.499999999999997,0.21855711936950684,21.3,161,144,17
125,1.0104364498900538,0.12028988239478808,0.8176450458327026,2.7328745126724243,1.8549203872680664,6.1999999999999975,0.21898293495178223,17.6,111,101,10
126,1.9572338324593208,0.1404614147098558,1.5707963267948966,0.8822858035564423,1.9315700009465218,6.1999999999999975,0.21503305435180664,13.2,118,107,11
127,1.4257546284682912,0.28379410920832787,0.49782233261700126,2.253532290458679,1.6954340487718582,6.499999999999997,0.2228679656982422,14.0,151,132,19
128,2.3458855770461016,0,2.0262473980457902,1.7899789810180664,1.2329967617988586,6.499999999999997,0.21793603897094727,22.4,133,116,17
129,0.5942137038004339,0.08008558003365902,0.5364354576047312,0.6066442430019379,1.7607224881649017,6.1999999999999975,0.21520400047302246,12.4,106,91,15
130,0.38050637711236485,0.80380231893303,0.33109607670413205,2.1452605724334717,2.3523433208465576,6.499999999999997,0.2180309295654297,11.5,96,82,14
131,0.9119902906774204,0,2.356194490192345,0.8541588485240936,0.771821916103363,6.499999999999997,0.21712994575500488,10.9,105,96,9
132,1.1902899496825319,0,1.0303768265243127,2.2741687297821045,2.6245800256729126,6.799999999999997,0.21838688850402832,13.9,136,118,18
133,0,0,0,0,0,0,0,0,0,0,0
134,1.452306367636759,0.45559867339582344,0.8656849786804648,2.3410976827144623,1.0001107387361117,6.499999999999997,0.2262718677520752,19.5,149,129,20
135,1.3775848429470907,1.5707963267948966,0.8861791624821161,1.2634028494358063,1.312798649072647,6.799999999999997,0.2208709716796875,27.9,148,129,19
136,1.2610933822524404,1.5707963267948966,0.9041035005406255,1.2527062892913818,0.8258738368749619,7.099999999999997,0.1995689868927002,15.0,114,101,13
137,0,0,0,0,0,0,0,0,0,0,0
138,1.570796326794896,0.04001067435398893,2.297438667476622,2.272750735282898,0.69504714012146,6.499999999999997,0.21827006340026855,29.299999999999994,107,90,17
139,0.6881449651458826,1.5707963267948966,1.7818896600176426,1.4928520321846008,1.800599217414856,6.799999999999997,0.20865201950073242,20.699999999999996,129,118,11
140,0.32175055439664224,0.2837941092083278,0.30288486837497147,2.333183169364929,1.5606255531311035,6.1999999999999975,0.22414207458496094,15.1,110,100,10
141,0.9129077216126865,0.14046141470985582,0.45545107125089357,1.374627485871315,2.265861392021179,6.499999999999997,0.22459197044372559,11.4,77,62,15
142,1.1722738811284765,0,0.9272952180016123,2.752317428588867,3.2409377098083496,6.499999999999997,0.2159280776977539,13.600000000000001,117,104,13
143,0.02083032003621709,0,0.02040533068653809,0.5,1.627004623413086,2.0,0,1.4,12,13,0
144,0.4899573262537284,0,0.45145309155255436,1.3203717768192291,0.8034446239471436,6.499999999999997,0.19572782516479492,15.1,79,71,8
145,0.9928943898326511,1.5707963267948966,1.6539375586833378,1.6903043389320374,1.8882347345352173,6.499999999999997,0.20234990119934082,14.2,116,103,13
146,0.7209713239718948,0.020001333573390494,0.8253768505207384,1.4856817126274109,1.7816542387008667,6.499999999999997,0.22016119956970215,9.9,87,76,11
147,0,0,0,0,0,0,0,0,0,0,0
148,0.7008544078844502,0.04001067435398893,0.16076274062583468,1.5479334071278572,0.5820818766951561,6.499999999999997,0.21889400482177734,121.5,88,78,10
149,1.596431735316574,0.020001333573390494,1.5974566751694945,1.407142199575901,1.3631483912467957,6.499999999999997,0.20154285430908203,20.0,97,89,8
150,1.0460005551447893,0.12028988239478809,0.809783572570167,1.8245213627815247,1.6493531465530396,6.1999999999999975,0.2033829689025879,16.0,126,111,15
151,1.4288992721907325,1.5707963267948966,1.9222411207984484,1.5,1.179482102394104,6.799999999999997,0.2214498519897461,27.799999999999997,144,123,21
152,0.8836721166534577,0,0.7727406115633965,1.7506594061851501,1.3548890352249146,6.499999999999997,0.22526812553405762,11.5,97,84,13
153,0,0,0,0,0,0,0,0,0,0,0
154,0.737815060120465,1.5707963267948966,0.16076274062583476,3.045365333557129,1.6951977014541626,6.799999999999997,0.22390198707580566,32.099999999999994,134,122,12
155,0,0,0,0,0,0,0,0,0,0,0
156,1.6176370397108661,1.5707963267948966,1.4951831835580667,1.8648481965065002,0.8674774765968323,7.099999999999997,0.2224597930908203,12.9,106,92,14
157,3.141592653589793,1.5707963267948966,3.141592653589793,4.076225280761719,3.7747085094451904,6.799999999999997,0.2365429401397705,19.7,149,130,19
158,0.7036137827794524,0,0.7531512809621945,1.2548115849494934,0.770985335111618,6.499999999999997,0.2026231288909912,15.9,81,70,11
159,1.0007558630951865,0.04001067435398893,0.7188299996216245,1.6970102787017822,0.9530506432056427,6.499999999999997,0.2191169261932373,12.5,109,96,13
160,1.5301682891135235,1.5707963267948966,1.021421842023346,2.139906644821167,2.115595817565918,6.499999999999997,0.22043800354003906,11.4,129,114,15
161,1.0824623757384912,1.5707963267948966,0.7266423406817256,3.3072495460510254,0.9719411972910166,6.799999999999997,0.22031497955322266,15.2,144,124,20
162,0.33787818824027843,0.32572948729463025,0.2683662109059069,1.4054870009422302,1.8943488597869873,6.499999999999997,0.22504901885986328,19.599999999999998,101,88,13
163,0,0,0,0,0,0,0,0,0,0,0
164,3.141592653589793,0.5006547124045881,3.141592653589793,0.7171807438135147,1.5,6.499999999999997,0.22186493873596191,9.7,90,78,12
165,0.6777082925646277,0.3469168975271618,0.6777082925646277,2.7750476598739624,0.7903283387422562,6.499999999999997,0.20497703552246094,16.7,101,90,11
166,1.6142472221864275,0,1.5707963267948966,1.6921635270118713,1.3601851761341095,2.3,0,3.0,74,73,2
167,0.9272952180016123,0.04001067435398893,1.5707963267948966,1.530564546585083,1.4652734994888306,6.499999999999997,0.21696090698242188,12.2,89,82,7
168,1.6666554739049098,1.5707963267948966,1.5707963267948966,1.5813861787319183,0.946155920624733,6.799999999999997,0.2230210304260254,21.199999999999996,108,93,15
169,3.0981417581982624,0,2.9168814851751503,1.9830564260482788,1.9018458127975464,6.1999999999999975,0.2382819652557373,14.8,92,86,6
170,1.06369782240256,1.5707963267948966,0.3587706702705724,1.3282414972782135,1.2060856372117996,6.1999999999999975,0.20449519157409668,13.4,104,94,10
171,0,0,0,0,0,0,0,0,0,0,0
172,1.0358412530088004,1.5707963267948966,1.0358412530088004,2.9605185985565186,1.7116567492485046,6.499999999999997,0.21913814544677734,18.6,101,84,17
173,0.3851575063634742,0.6435011087932844,0.3217505543966422,1.0209789406508207,0.8802928626537323,6.499999999999997,0.22188878059387207,24.199999999999996,91,79,12
174,0.7597627548757709,0.1404614147098558,0.6640461628266847,1.6132607758045197,1.3222777843475342,6.499999999999997,0.2198657989501953,17.9,91,74,17
175,1.5707963267948966,1.5707963118937354,0.844153986113171,2.3210098147392273,2.4812008142471313,6.799999999999997,0.2155449390411377,23.0,134,115,19
176,1.4432867685796584,0.3046926540153975,1.0873493252276976,1.5012714862823486,1.7398761510849,6.499999999999997,0.2216331958770752,13.7,103,93,10
177,1.6760398344236676,0.3046926540153975,1.4114446858909797,2.8447937965393066,1.6167885065078735,6.1999999999999975,0.19615387916564941,13.8,113,100,13
178,1.5707963267948966,0,1.0121970114513343,1.5959486961364746,1.0,6.499999999999997,0.19888687133789062,14.0,95,87,8
179,1.2618655828711551,1.5707963267948966,1.1807482545314472,1.1761916279792786,1.5,6.799999999999997,0.22501921653747559,20.0,137,124,13
180,1.8692952583810754,1.5707963267948966,2.0940746489268713,1.3918404877185822,1.6516959071159363,6.1999999999999975,0.22810792922973633,10.2,129,117,12
181,1.5350972141155723,1.5707963267948966,1.9347752833045406,1.0219914857298136,2.544018268585205,7.399999999999997,0.2047419548034668,16.2,120,103,17
182,1.3473197256542637,0,0.8288490587889792,1.664840817451477,0.8997886180877686,6.799999999999997,0.21339917182922363,30.49999999999999,155,136,19
183,0.4444192099010989,0.6687427032023717,0.1343214419529684,1.1625459790229797,1.2613450437784195,6.499999999999997,0.2062540054321289,18.3,110,92,18
184,1.1420182993488803,0,0.8058034940839864,1.0772358179092407,1.0029634218662977,6.499999999999997,0.2226390838623047,13.5,80,70,10
185,0.4398425828157363,0.2837941092083278,0.7266423406817258,0.9937490224838257,2.501373291015625,7.099999999999997,0.21502900123596191,17.7,123,107,16
186,0.594213703800434,0.6435011087932845,0.6632029927060934,1.9749659299850464,2.0366135835647583,6.799999999999997,0.16893792152404785,13.0,105,89,16
187,1.1341691669813552,0.1001674211615598,0.8486049952949087,1.1193528175354004,3.0647571086883545,6.1999999999999975,0.21127986907958984,14.5,120,110,10
188,0.9629943306809363,1.3704614844717764,0.6593100683328578,1.0662132799625397,1.8191158771514893,6.499999999999997,0.21553492546081543,14.3,106,89,17
189,0.8308214428190255,0.14046141470985582,0.5713374798336268,1.1086067855358124,2.163684129714966,6.499999999999997,0.22544384002685547,19.900000000000002,143,122,21
190,1.2291808361470895,1.5707963267948966,1.1071487177940904,1.0075125694274902,2.085246205329895,6.1999999999999975,0.21781301498413086,13.5,134,116,18
191,0,0,0,0,0,0,0,0,0,0,0
192,1.4013832829052784,1.5707963267948966,0.9900399732272264,2.1581913232803345,1.3940450549125671,6.799999999999997,0.20801305770874023,22.099999999999998,117,100,17
193,0.9367736071314746,0.9972832223717998,0.7431697612844463,3.625359296798706,3.0090768337249756,6.499999999999997,0.22174310684204102,26.299999999999997,114,99,15
194,1.3876855095324125,1.5707963267948966,0.09966865249116269,2.242909550666809,1.7890393733978271,6.499999999999997,0.22101306915283203,16.200000000000003,107,94,13
195,0.372987721800061,0.34691689752716165,2.2896263264165206,1.599570631980896,1.8356907367706299,6.1999999999999975,0.2234477996826172,9.5,88,75,13
196,0.5823529461439833,0.6435011087932844,2.7985687131690895,1.078375905752182,1.7783005833625793,6.799999999999997,0.16965985298156738,14.5,122,109,13
197,3.1415926535897927,1.5707963267948966,2.5535900500422253,1.4821910858154297,1.3574885725975037,6.1999999999999975,0.20251202583312988,17.7,115,103,12
198,1.3608228139327332,0.3257294872946301,0.7641247773733871,1.0011279351310804,3.2204887866973877,6.499999999999997,0.21380209922790527,10.2,75,62,13
199,0.9431669009934024,0,0.9431669009934024,0.5058101271279156,2.4885692596435547,7.099999999999997,0.21715402603149414,17.7,109,96,13
200,2.034443935795703,0.7208187608700896,1.1296168463799159,1.2729951739311218,0.6737490296363831,6.799999999999997,0.22519302368164062,36.39999999999999,115,96,19
201,1.0636978224025597,0,0.933725997519213,2.0867886543273926,1.5314445495605469,6.499999999999997,0.21726417541503906,13.6,103,93,10
202,0,0,0,0,0,0,0,0,0,0,0
203,1.46288383797822,1.5707963118937354,0.9367736071314747,1.5022223761770874,2.7225533723831177,7.099999999999997,0.20570683479309082,-74.19999999999999,169,138,31
204,0,0,0,0.5,1.0024209022521973,2.0,0,0.5,5,6,0
205,0.3217505543966423,0.45559867339582333,0.23923159996366058,0.6875602900981903,0.941898375749588,7.099999999999997,0.20907092094421387,16.1,65,50,15
206,0.5779019369622458,0.41151684606748806,0.5807563535676705,1.584397554397583,1.66450035572052,7.099999999999997,0.22252798080444336,11.7,106,90,16
207,2.214297435588181,0,1.695151321341658,1.3100679516792297,2.497861385345459,6.799999999999997,0.22592496871948242,13.8,113,99,14
208,1.1525719972156674,0.7477626346599208,1.0222469243443686,1.110720932483673,1.3077179789543152,6.499999999999997,0.3227849006652832,37.099999999999994,146,125,21
209,1.7247409912532465,0.10016742116155973,1.484802035600656,1.4211644530296326,1.6125536859035492,6.499999999999997,0.20258808135986328,13.9,130,113,17
210,0.45471927482096935,0.04001067435398893,0.2847304385227122,1.078039512038231,1.366032063961029,6.799999999999997,0.21719598770141602,15.2,86,71,15
211,0.6889243882148613,0.10016742116155981,2.158798930342464,1.5237019062042236,0.9771437589079142,6.799999999999997,0.21427512168884277,22.699999999999996,103,86,17
212,0.41822432957922917,0.04001067435398893,0.41822432957922917,1.8060844838619232,0.9811489582061768,6.499999999999997,0.21647310256958008,19.899999999999995,105,89,16
213,1.1760052070951352,0,1.1760052070951352,3.2301361560821533,1.0934826731681824,6.499999999999997,0.21637511253356934,21.7,87,75,12
214,1.2291808361470895,1.5707963267948966,1.2291808361470895,2.250433921813965,1.2863961458206177,6.799999999999997,0.2277538776397705,11.1,92,81,11
215,0.7853981633974483,0,0.7853981633974483,2.213828355073929,1.6649592518806458,6.499999999999997,0.2203199863433838,15.0,98,82,16
216,1.329440836219493,0,0.7717003900245825,1.6126090288162231,2.8389639854431152,6.499999999999997,0.22168612480163574,14.7,102,90,12
217,0.7008544078844503,0.570437109399922,1.224510688924805e-16,2.109573721885681,1.7888138890266418,6.499999999999997,0.21493291854858398,17.4,78,65,13
218,0.41822432957922906,0.2218144704967944,0.340381938641907,1.3072443902492523,1.5956369042396545,6.499999999999997,0.21873188018798828,14.499999999999998,97,84,13
219,0.6086893073274117,0.04001067435398896,0.7437555842988599,1.6705801486968994,2.1348081827163696,6.499999999999997,0.2294321060180664,18.9,102,92,10
220,0.7604033697785283,0.45559867339582333,1.2261490111768705,0.7577711492776871,1.6458654403686523,7.099999999999997,0.20006299018859863,17.6,117,101,16
221,0.15431877592611906,0,0.14481249823893905,0.8215837180614471,2.4160622358322144,2.5999999999999996,0,2.4,20,20,1
222,1.460139105621001,0.38979629647426056,0.4266274931268764,1.0,1.3868589997291565,6.499999999999997,0.21089410781860352,27.399999999999995,119,107,12
223,1.7975951748487824,1.1680804852142348,1.2160906747839564,1.1188165321946144,1.4525866508483887,6.499999999999997,0.23135805130004883,12.4,101,86,15
224,1.5067813489605526,1.2870022175865694,1.1278711396865744,1.5952683687210083,3.958158493041992,6.499999999999997,0.2261791229248047,12.7,123,106,17
225,0.02040533068653809,0,0.0,0.8036592304706573,0.9119830131530762,2.8999999999999995,0,2.2,13,14,0
226,0.3347368373168147,0.16069065295191062,2.62244653934327,1.2744665145874023,2.0904165506362915,6.499999999999997,0.2124769687652588,15.5,87,70,17
227,1.0552473193359178,0.36826789343663996,1.038292228493046,2.794654607772827,1.008783996105194,6.1999999999999975,0.21562695503234863,11.7,110,94,16
228,3.0750244898139694,1.5707963267948966,2.651635327336065,2.034681558609009,1.0860126614570618,6.799999999999997,0.20818710327148438,18.4,136,116,20
229,1.329440836219493,0.16069065295191054,0.8097835725701668,1.0,1.7347159385681152,6.799999999999997,0.21557998657226562,18.799999999999997,113,96,17
230,0.4398425828157363,0.16069065295191062,0.020830320036217022,0.8038698434829712,1.2612011134624481,6.499999999999997,0.22824692726135254,19.199999999999996,118,103,15
231,0,0,0,0,0,0,0,0,0,0,0
232,0.7086262721276703,0.80380231893303,1.6539375586833376,0.5884640216827393,0.44629985466599464,6.799999999999997,0.17406797409057617,444.19999999999993,87,74,13
233,1.5893127288629056,0.08008558003365902,1.2200683785466933,0.8162981271743774,1.1056997776031494,6.1999999999999975,0.21728301048278809,18.299999999999997,116,108,8
234,0.43662715981354133,0.020001333573390494,0.37206775885812055,1.0733636543154716,1.2137751579284668,6.799999999999997,0.2179570198059082,11.7,95,83,12
235,0.08314123188844125,0.08008558003365902,0.08865588186743747,0.5056523680686951,1.4615200757980347,2.8999999999999995,0,11.3,28,25,4
236,0.9272952180016124,0.06003605844527839,0.7610127542247298,1.6820611357688904,1.1800051927566528,7.099999999999997,0.21645402908325195,24.699999999999996,90,78,12
237,0.8176450458327025,0.12028988239478809,0.7419472680059177,1.641614854335785,2.4061633348464966,7.699999999999997,0.1696300506591797,15.600000000000001,108,91,17
238,0.7036137827794524,0.8330703583416478,0.5585993153435626,0.8539071083068848,1.4595894180238247,6.499999999999997,0.21858692169189453,18.2,100,91,9
239,0.6747409422235527,0.3046926540153976,0.5724598138180512,1.0716326758265495,1.0743085741996765,6.1999999999999975,0.2157440185546875,23.399999999999995,90,82,8
240,0,0,0,0,0,0,0,0,0,0,0
241,1.7731179551732004,0.36826789343664,0.5667292175235064,3.889246702194214,1.4847835898399353,6.799999999999997,0.20865797996520996,16.3,91,73,18
242,0.2644883825492325,0.26302220290846884,1.570796326794891,0.6489851325750351,0.8019208908081055,6.799999999999997,0.2107398509979248,23.799999999999994,79,63,16
243,1.1659045405098132,1.2226303055219352,0.6435011087932845,1.3635037541389465,1.0,6.799999999999997,0.223297119140625,13.9,76,63,13
244,0,0,0,0,0,0,0,0,0,0,0
245,1.873681195169868,1.5707963267948966,2.0429183091986736,0.7163003087043762,2.0499284267425537,6.799999999999997,0.22397208213806152,20.7,93,82,11
246,0.5763752205911837,0.24236585103896324,0.4514530915525543,1.9952839016914368,0.6292799562215805,6.499999999999997,0.22007107734680176,21.2,123,102,21
247,1.8563089754609032,0.1809864512465477,0.9713438419531591,1.5479062050580978,1.873287558555603,6.799999999999997,0.21019506454467773,20.5,146,131,15
248,1.5549246438031064,0.570437109399922,1.2277723863741934,2.0581576824188232,1.5,6.499999999999997,0.19964098930358887,15.0,109,91,18
249,1.4784669920632976,0.060036058445278435,2.0576955586061656,1.6243045926094055,1.0819933712482452,6.799999999999997,0.22472500801086426,18.499999999999993,113,96,17
250,1.0789871508061981,0.5943858000010622,0.340381938641907,1.5330978222191334,2.050502121448517,6.499999999999997,0.22260189056396484,26.699999999999992,102,83,19
251,0.7044940642422178,0.433445320069886,0.48995732625372834,0.9323277473449707,0.9394859932363033,6.499999999999997,0.21184802055358887,14.0,84,70,14
252,0,0,0,0,0,0,0,0,0,0,0
253,0.9038881225555861,0.08008558003365902,2.0831857871056343,2.5687419176101685,0.8882244527339935,6.499999999999997,0.2209920883178711,13.5,105,94,11
254,0.7086262721276703,0,1.147942400661956,0.5932872593402863,2.012336492538452,6.499999999999997,0.20072197914123535,28.39999999999999,77,65,12
255,0,0,0,0,0,0,0,0,0,0,0
256,0.4366271598135413,0.18098645124654772,0.3347368373168147,1.4946427452377975,1.0013024411164224,6.499999999999997,0.20685601234436035,23.599999999999998,102,87,15
257,1.056345013735869,1.5707963267948966,1.056345013735869,1.4505536258220673,1.0060853958129883,6.799999999999997,0.21927690505981445,18.9,99,86,13
258,0.38050637711236496,0.24236585103896327,0.07485984771076684,1.4860790967941284,1.3445188999176025,6.499999999999997,0.2274470329284668,14.4,132,111,21
259,0.5448639154515438,0.41151684606748806,0.5448639154515438,1.4890896519646049,1.8948354721069336,5.299999999999998,0,11.1,84,77,8
260,3.009041121293119,0.020001333573390494,3.009041121293119,1.128065586090088,1.4773858934640884,6.499999999999997,0.2158491611480713,11.7,126,108,18
261,0,0,0,0,0,0,0,0,0,0,0
262,1.178456182579381,0.4115168460674881,0.8086497862079112,1.6133695244789124,1.8045172691345215,6.799999999999997,0.17060494422912598,12.0,105,90,15
263,1.0475180046629213,1.5707963267948966,0.4475199751571702,1.5573556423187256,2.688214585185051,6.499999999999997,0.2096250057220459,13.1,120,104,16
264,1.2490457723982544,0.16069065295191062,0.7036137827794524,1.3614659309387207,0.8163148462772369,6.799999999999997,0.20729589462280273,11.2,95,81,14
265,0.8148014516014535,0.08008558003365902,0.22131444234779138,1.1879781186580658,0.9641880057752132,6.1999999999999975,0.1942908763885498,16.1,92,78,14
266,0.6747409422235527,0.9972832223718002,0.41012734054149097,1.9803414344787598,0.7400727868080139,6.499999999999997,0.2239530086517334,22.699999999999996,92,76,16
267,0,0,0,0,0,0,0,0,0,0,0
268,0.43833655985795783,0.04001067435398893,0.3617292415199322,0.7353131771087646,1.143609881401062,7.099999999999997,0.17248201370239258,16.3,73,61,12
269,2.0576955586061656,1.5707963267948966,2.224879051209257,0.9241999089717865,1.3946415930986404,6.799999999999997,0.21367287635803223,19.4,107,86,21
270,0.3217505543966423,0,0.12435499454676152,0.7303291112184525,0.8248606324195862,2.3,0,2.5,39,38,2
271,0.7209713239718949,1.5707963267948966,1.2698760924344716,1.6163900941610336,3.7021024227142334,6.499999999999997,0.21964597702026367,10.2,102,90,12
272,0.08673833867598514,0.08008558003365902,0.08673833867598514,0.928267776966095,1.4520642757415771,4.399999999999999,0,6.4,39,34,6
273,0.5585993153435624,1.5707963267948966,0.5585993153435624,1.6722974926233292,1.8071832656860352,6.799999999999997,0.21737003326416016,13.4,97,79,18
274,1.2220253232109897,0.36826789343663996,0.519146114246523,1.6516661942005157,2.262809157371521,7.099999999999997,0.21796584129333496,13.1,112,97,15
275,0.8760580505981944,1.5707963267948966,2.6422459319096627,0.8433690667152405,2.6742031574249268,6.499999999999997,0.22557997703552246,23.699999999999996,99,85,14
276,0.7531512809621945,0.3046926540153975,2.8632929945846817,4.090888738632202,2.4153897762298584,6.799999999999997,0.2439417839050293,15.9,133,109,24
277,0.8760580505981936,0.020001333573390494,0.7362574289814283,1.2512793838977814,2.798758029937744,6.499999999999997,0.21798110008239746,15.5,149,129,20
278,0.9272952180016122,0.24236585103896324,0.844153986113171,2.475451946258545,1.4167548418045044,6.499999999999997,0.2186260223388672,12.1,93,80,13
279,1.4241298329977037,0.8633131150155536,1.124690777851493,1.3224529027938843,0.5390023216605186,6.499999999999997,0.20468902587890625,12.8,93,84,9
280,0,0,0,0,0,0,0,0,0,0,0
281,0.6483319890872606,0.1001674211615598,0.5585993153435623,0.797862321138382,1.44315767288208,7.399999999999997,0.21834897994995117,27.599999999999998,100,81,19
282,1.5113426674862398,0.694498265626556,1.0222469243443686,1.7916057109832764,2.0874616652727127,6.1999999999999975,0.20892906188964844,15.2,135,119,16
283,1.0808390005411683,0,1.9368528426423148,1.3689884543418884,1.260638415813446,6.499999999999997,0.2015078067779541,19.799999999999997,127,110,17
284,0.3995154939993745,0.411516846067488,0.47439988279190737,2.6630778312683105,2.214104115962982,7.399999999999997,0.22789716720581055,13.4,104,88,16
285,0.9561333748727311,1.5707963267948966,1.5707963267948966,0.9651684537529945,1.027000691741705,6.499999999999997,0.21826696395874023,17.7,95,81,14
286,0.5404195002705843,0.3046926540153975,0.45277847182353603,1.547464370727539,1.1653470695018768,6.799999999999997,0.22916483879089355,28.799999999999997,97,82,15
287,0.4514530915525544,0.08008558003365894,2.0308957767533357e-17,0.6910666823387146,2.2080187797546387,6.499999999999997,0.20151114463806152,18.0,95,78,17
288,1.6118691053853507,0.43344532006988595,0.7140906986121581,0.9972345530986786,1.0368059873580933,6.499999999999997,0.21945405006408691,15.600000000000001,96,84,12
289,3.009041121293119,1.5707963267948966,2.971814379621455,1.0815875455737114,1.1247827410697937,6.1999999999999975,0.22106599807739258,14.4,93,86,7
290,0.7531512809621944,0.6687427032023717,0.3152146997507111,1.454062107950449,1.743464469909668,6.499999999999997,0.2031111717224121,16.700000000000003,92,79,13
291,0.28123220191829523,0.04001067435398893,0.09495170634275632,1.0,1.2197397351264954,6.499999999999997,0.20415210723876953,11.100000000000001,93,83,10
292,1.8086322542523472,0.060036058445278435,1.467003986337854,1.973832607269287,0.9372604191303253,6.799999999999997,0.22178196907043457,20.5,136,110,26
293,0.3805063771123648,0.020001333573390494,0.260602391747341,1.9576495885849,2.523666739463806,6.499999999999997,0.22424697875976562,11.6,91,80,11
294,0,0,0,0,0,0,0,0,0,0,0
295,2.2896263264165206,0.10016742116155981,2.414950312908067,2.2070806473493576,0.6966674625873566,6.499999999999997,0.15054702758789062,31.799999999999994,91,77,14
296,0.6498704494119477,0.04001067435398889,0.5224034317165289,1.4006758332252502,3.580794095993042,6.799999999999997,0.2218010425567627,19.3,125,105,20
297,0.6478114269270985,0.18098645124654772,0.2449786631268642,1.9043214097619057,1.6425143480300903,6.499999999999997,0.22526979446411133,10.6,74,66,8
298,0.28379410920832787,0,0.044415215246910854,2.325036644935608,2.1908326148986816,6.499999999999997,0.2055201530456543,15.0,85,70,15
299,0,0,0,0,0,0,0,0,0,0,0
300,0.7130608328588534,0.8633131150155536,0.5645693936681001,2.531911849975586,2.533916711807251,6.499999999999997,0.22001194953918457,16.0,97,85,12
301,1.2036224929766777,0,1.2120256565243246,1.5,2.401231050491333,6.499999999999997,0.223236083984375,12.2,129,110,19
302,0.32175055439664224,0.7477626346599203,0.21866894587394223,1.2148276269435883,0.980851024389267,6.499999999999997,0.19494104385375977,14.8,93,77,16
303,0.6273081922757626,0.020001333573390494,0.575424650535285,0.8692407608032227,1.4115630388259888,6.499999999999997,0.2020280361175537,13.6,110,92,18
304,0.5317240672588056,0.1001674211615598,1.299849476456476,1.5666183829307556,1.6907476782798767,6.799999999999997,0.22822999954223633,19.4,106,91,15
305,1.8588517738455226,0.3046926540153976,0.6627295078929917,2.5600173473358154,4.069732666015625,6.799999999999997,0.21030306816101074,12.9,99,86,13
306,0.7283173809911837,0.08008558003365902,0.7283173809911837,1.0905813574790955,0.8988488018512726,6.799999999999997,0.21353912353515625,15.0,74,61,13
307,1.2036224929766774,0.08008558003365902,0.4248321629193425,2.3277082443237305,2.3258553743362427,7.099999999999997,0.21165704727172852,13.2,102,88,14
308,1.716808584506172,0,1.2120256565243246,1.2938253283500671,1.5824512243270874,6.1999999999999975,0.22362112998962402,13.4,116,97,19
309,1.4876550949064553,0.433445320069886,1.044169055361146,1.5477845668792725,3.29450786113739,7.699999999999997,0.22207903861999512,13.8,106,90,16
310,0.9453112865556675,1.5707963267948966,2.1193457292454245,2.4585179686546326,1.113601103425026,7.099999999999997,0.21744394302368164,18.9,88,73,15
311,3.0438657462310745,0,2.8147660006598523,1.9702220559120178,2.507160782814026,6.499999999999997,0.2137141227722168,17.9,102,85,17
312,1.8588517738455226,1.5707963267948966,1.1150225708181913,1.7307294607162476,2.3075931072235107,6.499999999999997,0.2160170078277588,16.7,108,92,16
313,0.45471927482096947,0,0.6327488350021833,2.2331138849258423,2.1877492666244507,6.799999999999997,0.23194003105163574,11.2,86,72,14
314,0,0,0,0,0,0,0,0,0,0,0
315,1.4327903031373772,0.5468509506959441,1.1479424006619559,0.6355148255825043,1.0,6.499999999999997,0.21766018867492676,26.999999999999993,100,84,16
316,1.1071487177940906,1.5707963267948966,1.1071487177940906,0.8082312643527985,1.2825068235397339,5.299999999999998,0,9.1,75,67,9
317,0.7130608328588534,0.7477626346599207,0.4883339510564057,1.7510830163955688,1.3478115051984787,6.499999999999997,0.21946096420288086,12.3,89,72,17
318,0.9367736071314747,0.80380231893303,0.8760580505981936,1.357390820980072,0.8212255835533142,6.499999999999997,0.21595311164855957,14.9,88,73,15
319,1.1801892830972098,0.3257294872946301,0.9240379005316063,1.033512081950903,1.8630244731903076,7.399999999999997,0.23608088493347168,12.7,101,85,16
320,0.4825132950224769,0.47799519851895234,0.3217505543966423,3.115792989730835,1.4727901257574558,6.799999999999997,0.17337703704833984,12.9,103,85,18
321,1.373400766945016,0.2013579207903308,0.5191461142465229,0.8977707326412201,1.8915338516235352,6.799999999999997,0.21863102912902832,17.2,90,75,15
322,1.4601391056210011,1.5707963267948966,1.0906212971913698,2.3562005758285522,1.0832373797893524,6.499999999999997,0.2192530632019043,16.0,111,96,15
323,2.819842099193151,0.04001067435398893,2.761086276477428,1.7012710571289062,2.3102476596832275,6.499999999999997,0.2283802032470703,13.1,97,81,16
324,2.040224218239364,1.5707963267948966,1.1710152285520998,1.8518297672271729,0.876639723777771,6.1999999999999975,0.21142005920410156,13.4,88,73,15
325,0.5404195002705843,0.04001067435398888,0.7531512809621945,0.648067444562912,1.4603151679039001,6.799999999999997,0.22176003456115723,119.5,117,98,19
326,0.07304056530311934,0.12028988239478809,0.07485984771076688,1.1388914585113525,0.6095831543207169,2.0,0,12.999999999999998,32,32,1
327,0.7974457732516345,0.16069065295191057,0.7727406115633965,0.9749777968972921,2.4804208278656006,7.099999999999997,0.21587896347045898,12.6,89,74,15
328,0.4228539261329407,0,0.4527784718235359,1.5529183149337769,0.80994912981987,6.499999999999997,0.20074105262756348,15.400000000000002,85,68,17
329,1.5707963267948963,0,2.0091328866528544,1.5202053133398294,2.250840663909912,6.799999999999997,0.22539806365966797,13.3,89,76,13
330,0,0,0,0,0,0,0,0,0,0,0
331,2.63162059388838,0,1.0303768265243127,1.1229294538497925,0.9327747523784637,6.799999999999997,0.21781706809997559,28.999999999999993,90,74,16
332,0,0,0,0,0,0,0,0,0,0,0
333,1.4108832036366774,1.5707963267948966,1.9222411207984482,2.2357487082481384,1.0183208584785461,6.799999999999997,0.22579598426818848,21.299999999999997,106,90,16
334,0.866302262552679,0.1404614147098558,0.6640461628266846,0.8510501086711884,0.7025397568941116,2.5999999999999996,0,12.399999999999999,61,60,2
335,0.6435011087932843,0.24236585103896327,0.34038193864190697,1.282086431980133,1.292052447795868,6.799999999999997,0.19974589347839355,13.5,90,68,22
336,1.7561442767905913,0,1.7561442767905913,2.817934274673462,2.8343605995178223,6.499999999999997,0.22086596488952637,20.1,102,88,14
337,0,0,0,0,0,0,0,0,0,0,0
338,2.000558605891585,0.04001067435398891,1.306307944245664,1.0,1.3657332360744476,6.499999999999997,0.207719087600708,20.9,85,69,16
339,0.46364760900080615,0,0.5585993153435626,1.079104244709015,1.2586038708686829,6.799999999999997,0.19984197616577148,12.8,82,70,12
340,0.9129077216126865,0.2013579207903308,0.6640461628266846,1.4601282961666584,1.0359726436436176,6.799999999999997,0.2175750732421875,16.8,100,84,16
341,0.38050637711236496,0,0.4514530915525544,1.3496188521385193,0.5155664971098304,2.8999999999999995,0,2.7,19,20,0
342,0.3392926144540448,0.9272952180016121,0.16076274062583476,1.0177078675478697,1.6075172424316406,6.499999999999997,0.22410798072814941,12.0,87,73,14
343,1.5707963267948966,0.16069065295191054,0.3016190462662397,1.0327822640538216,1.6870757341384888,7.399999999999997,0.23007512092590332,10.7,79,65,14
344,3.141592653589793,1.5707963267948966,3.141592653589793,2.4215484261512756,1.808987319469452,7.699999999999997,0.20113587379455566,18.2,140,116,24
345,1.3059789968891078,0.020001333573390494,0.8836721166534575,2.17741060256958,1.3280929327011108,6.499999999999997,0.22408103942871094,21.699999999999996,115,98,17
346,0.6202494859828215,0.7753974966107532,0.5645693936681001,0.6311787962913513,1.3365378081798553,6.799999999999997,0.21253108978271484,18.5,87,71,16
347,0,0,0,0,0,0,0,0,0,0,0
348,1.0729739941778955,0.8946658172342352,0.8836721166534576,2.4973025918006897,1.1652844697237015,6.799999999999997,0.21721696853637695,21.0,105,86,19
349,0.33787818824027843,0.618728690672251,0.054001500375968264,2.119699440896511,1.4937396049499512,7.399999999999997,0.19893407821655273,14.3,96,80,16
350,1.0007558630951865,0.6687427032023718,0.6435011087932845,1.0,1.499559074640274,6.799999999999997,0.21859502792358398,12.6,95,79,16
351,0.2053953891897674,0.2013579207903308,0.04441521524691085,0.5981796830892563,2.0932196378707886,6.799999999999997,0.16353487968444824,21.299999999999997,88,72,16
352,1.7818896600176426,1.1197695149986338,2.4227626539681686,1.0639745742082596,2.8624744415283203,6.499999999999997,0.2202749252319336,13.4,98,86,12
353,0.43833655985795783,0.04001067435398893,0.3217505543966422,2.0,1.4301232695579529,6.799999999999997,0.21205401420593262,19.9,102,85,17
354,0.3142318990843384,0.020001333573390494,0.3378781882402785,0.5316370651125908,2.9008721113204956,6.799999999999997,0.2004718780517578,12.5,66,54,12
355,0.5763752205911837,0.6435011087932845,1.471127674303734,1.1472675204277039,1.1325415223836899,6.499999999999997,0.2151479721069336,16.0,104,86,18
356,1.4327903031373772,0.5006547124045881,1.0022717790638567,1.1507806181907654,3.188478946685791,6.799999999999997,0.22249698638916016,18.4,103,84,19
357,0.2160849722967865,0.12028988239478809,0.1932114838478061,0.35553231835365295,1.5,2.3,0,4.9,30,28,3
358,1.054565656183149,1.5707963267948966,1.1626472230398075,1.2672119736671448,2.4477096796035767,6.499999999999997,0.20391297340393066,13.2,91,74,17
359,1.681453547968792,1.5707963267948966,1.5707963267948963,0.9174634888768196,0.5679824948310852,6.799999999999997,0.2162010669708252,137.2,99,83,16
360,1.2442148921042782,0,0.9025069079643125,1.4333460927009583,1.7539337575435638,6.499999999999997,0.21602201461791992,13.4,88,71,17
361,0.24497866312686414,0.24236585103896321,0.21406068356382152,0.6230070143938065,1.2731558978557587,6.499999999999997,0.20430898666381836,15.2,87,74,13
362,0,0,0,0,0,0,0,0,0,0,0
363,0.8685393952858896,0.433445320069886,0.7727406115633964,1.2479841113090515,0.8022623658180237,8.299999999999997,0.21607184410095215,16.1,81,65,16
364,1.7942729279355296,1.5707963267948966,1.3467726797569732,2.36369651556015,1.9393730275332928,7.399999999999997,0.159959077835083,33.39999999999999,92,78,14
365,1.0014831356942349,0.28379410920832787,1.0121970114513343,0.983763549476862,1.6611190140247345,6.499999999999997,0.1966099739074707,13.100000000000001,87,75,12
366,0.9075933340888036,0.10016742116155979,0.340381938641907,1.3863487765192986,1.719027042388916,6.799999999999997,0.19897699356079102,13.8,73,62,11
367,1.8755168975594632,0.060036058445278435,1.5187600119856803,1.5,3.146164894104004,6.799999999999997,0.21320819854736328,15.7,115,97,18
368,0.42285392613294076,0.16069065295191062,0.42285392613294076,1.153996467590332,1.0038347840309143,6.799999999999997,0.19781708717346191,22.599999999999998,80,61,19
369,1.3521273809209546,0.1001674211615598,1.2365982825293935,1.2183787822723389,1.7577210664749146,6.799999999999997,0.21677303314208984,19.200000000000003,96,80,16
370,1.3415643935179011,0.2630222029084689,0.5585993153435626,0.8052515685558319,1.9374526739120483,6.499999999999997,0.20462608337402344,14.2,106,91,15
371,0,0,0,0,0,0,0,0.7,0,1,0
372,0.9129077216126865,0.24236585103896321,2.158798930342464,1.1575099974870682,1.7822734117507935,7.099999999999997,0.22051215171813965,14.3,92,74,18
373,1.396124127786657,0,1.5707963267948966,0.7838749885559082,1.6370054483413696,6.499999999999997,0.20072317123413086,9.0,62,54,8
374,0,0,0,0,0,0,0,0,0,0,0
375,1.2627435457711202,0.020001333573390397,1.0466166980119833,2.5445542335510254,1.5571794509887695,7.099999999999997,0.21685099601745605,14.9,84,68,16
376,0.6510767214444798,1.5707963267948966,0.4475199751571702,1.6059743165969849,1.6062688827514648,6.799999999999997,0.22310185432434082,15.8,104,82,22
377,1.1818394466158897,1.5707963267948966,1.2838575738641274,0.7511471807956696,2.787682056427002,6.499999999999997,0.2113499641418457,22.799999999999997,106,85,21
378,0,0,0,0,0,0,0,0,0,0,0
379,0.5807563535676705,0.08008558003365902,0.3366748193867271,0.908374160528183,2.0495365858078003,7.399999999999997,0.21383905410766602,15.7,95,73,22
380,0.33787818824027843,0.5235987755982989,0.19739555984988078,0.9082990288734436,0.6666257530450821,6.799999999999997,0.2036290168762207,131.69999999999996,74,59,15
381,0.3392926144540448,0,0.44751997515717007,1.3280339241027832,2.001823296537623,6.799999999999997,0.21041107177734375,9.9,66,56,10
382,0.5880026035475677,0,0.99945884696127,2.2117520570755005,1.2836443781852722,6.499999999999997,0.20493292808532715,13.0,89,78,11
383,1.460139105621001,1.5707963267948966,1.460139105621001,1.0859549716114998,0.5688870549201965,6.799999999999997,0.22230100631713867,17.9,78,63,15
384,0.34877100358390706,0,0.34877100358390706,2.9932644069194794,1.198947861790657,6.799999999999997,0.21518397331237793,23.099999999999998,90,74,16
385,1.5707963267948966,0.1001674211615598,0.5779019369622457,1.2083866596221924,2.07269150018692,6.499999999999997,0.20383787155151367,14.900000000000002,73,59,14
386,0.8960553845713443,0.5235987755982989,0.9874233198010409,2.122573733329773,1.6898237466812134,6.499999999999997,0.21723699569702148,10.4,95,82,13
387,0.8253768505207384,0.020001333573390494,0.6304014214735074,1.0,0.8260577768087387,6.499999999999997,0.1657428741455078,18.699999999999996,65,52,13
388,1.975688113079979,1.5707963267948966,1.570796326794896,0.7004922777414322,1.0148729961365461,6.799999999999997,0.20984315872192383,18.5,84,68,16
389,2.0533096218173736,0,0.8058034940839864,1.554937481880188,1.152944028377533,6.799999999999997,0.2120962142944336,16.2,98,80,18
390,1.8925468811915394,0,2.8198420991931505,4.615926027297974,0.6534304618835449,6.799999999999997,0.22921490669250488,17.3,97,79,18
391,0.4825132950224769,0.020001333573390494,0.452778471823536,1.597662329673767,0.9893763894215226,6.499999999999997,0.21713900566101074,11.600000000000001,100,87,13
392,0.3136206522166983,0.26302220290846895,0.3136206522166983,2.5541815757751465,1.0743352770805359,6.799999999999997,0.21274304389953613,11.0,95,79,16
393,1.0873493252276978,0,1.0873493252276978,3.7615588903427124,1.0847822427749634,6.799999999999997,0.20850396156311035,19.6,107,88,19
394,1.3439974787410107,0.9972832223718,1.1814796049617557,2.068800687789917,1.8610586524009705,6.499999999999997,0.2175300121307373,10.5,89,76,13
395,1.4876550949064553,0.020001333573390494,1.059240199624591,0.9947328087873757,1.1072515845298767,6.499999999999997,0.20998597145080566,14.3,69,57,12
396,1.5707963267948966,0,1.1071487177940904,0.6909458339214325,1.0,7.099999999999997,0.21457791328430176,16.4,80,67,13
397,0.896055384571344,0.36826789343664,0.4018706474404566,1.0033971071243286,1.0,6.799999999999997,0.15521001815795898,137.2,88,71,17
398,0,0,0,0,0,0,0,0,0,0,0
399,0.7531512809621945,0.6435011087932845,0.6435011087932845,1.1609996557235718,1.475712664425373,7.099999999999997,0.20841693878173828,13.0,79,61,18
400,1.2610933822524404,0.18098645124654775,1.6262948320406134,0.8939158618450165,1.0345455035567284,6.1999999999999975,0.22799396514892578,11.3,81,70,11
401,0.9888912086550112,1.5707963267948966,0.6610431688506873,1.4856151044368744,0.8021992743015289,7.099999999999997,0.20521306991577148,23.299999999999997,112,91,21
402,1.176005207095135,0,0.6640461628266847,1.2617939859628677,1.0,6.499999999999997,0.2100989818572998,16.5,81,67,14
403,0,0,0,0,0,0,0,0,0,0,0
404,1.299849476456476,0,1.299849476456476,1.4934231638908386,1.0640119314193726,6.799999999999997,0.2099299430847168,15.7,101,77,24
405,1.8925468811915387,1.5707963267948966,1.6403044233017205,0.424813874065876,2.0273609161376953,6.1999999999999975,0.20854592323303223,16.0,103,88,15
406,0.5724598138180513,0,0.2644883825492327,1.3990232348442078,2.6237118244171143,7.099999999999997,0.22365498542785645,15.9,107,85,22
407,0.40814910375508934,0,0.36172924151993224,1.5954322516918182,1.9656894207000732,6.499999999999997,0.1613759994506836,23.4,93,77,16
408,0.5543074962015513,0.12028988239478809,0.8913825213870483,0.9937411407008767,1.9643867015838623,6.799999999999997,0.1555030345916748,10.6,63,51,12
409,1.5707963267948966,0.8946658172342351,0.6327488350021832,1.313900351524353,1.4499332308769226,6.799999999999997,0.19512200355529785,11.9,91,74,17
410,1.122651351719107,0.08008558003365893,0.681298225287849,1.592189610004425,1.2370232939720154,6.799999999999997,0.22932815551757812,16.1,109,91,18
411,0.8176450458327023,0.41151684606748806,0.8176450458327023,1.5331661701202393,1.1896841078996658,6.799999999999997,0.21932387351989746,13.6,81,60,21
412,3.141592653589793,1.5707963267948966,3.141592653589793,2.638775944709778,0.7604598701000214,6.499999999999997,0.1949009895324707,20.099999999999998,93,79,14
413,0,0,0,0,0,0,0,0,0,0,0
414,0.6032298529246849,0.41151684606748806,0.659310068332858,1.9016535580158234,0.939363956451416,6.799999999999997,0.1469118595123291,11.2,80,66,14
415,1.3547113544981102,0,0.4136892132788634,0.9854549458250403,2.0494279861450195,6.499999999999997,0.20266509056091309,14.200000000000001,90,71,19
416,0.2639637236257046,0,0.07485984771076688,1.8098084926605225,0.8409274816513062,6.499999999999997,0.21197891235351562,11.8,83,70,13
417,0,0,0,0,0,0,0,0,0,0,0
418,0.8656849786804649,0.6435011087932844,1.033885584054851,1.0249571800231934,1.7370576858520508,6.799999999999997,0.23089003562927246,13.2,91,76,15
419,0.7188299996216245,1.5707963267948966,0.7853981633974484,1.7704460620880127,2.7741141319274902,6.499999999999997,0.20072507858276367,11.7,95,78,17
420,0.40814910375508934,0.20135792079033077,0.3416154906478072,2.020570993423462,1.0014677047729492,6.799999999999997,0.22447681427001953,17.799999999999997,68,60,8
421,0.02040533068653809,0,0,0.7957685589790344,0.5,2.0,0,1.4,4,5,0
422,1.2036224929766774,0,1.2392421649189587,1.3066439628601074,1.022115694358945,6.1999999999999975,0.19248294830322266,9.2,85,76,9
423,0.9224643377076361,0.8330703583416478,0.6022873461349642,1.0,1.8705648183822632,7.399999999999997,0.22017312049865723,25.099999999999998,82,63,19
424,0.260602391747341,0.16069065295191062,0.12435499454676142,1.2571748197078705,0.8576881289482117,6.499999999999997,0.2226119041442871,24.999999999999996,77,64,13
425,0.9380474917927135,0.28379410920832787,0.3769092703248211,2.7515846490859985,4.647731781005859,7.099999999999997,0.20396780967712402,12.0,101,84,17
426,1.0906212971913698,1.5707963267948966,1.0007558630951865,1.418418049812317,2.5881089568138123,7.099999999999997,0.2161240577697754,14.1,107,91,16
427,0.11065722117389566,0.14046141470985582,0.04441521524691084,0.9744078274816275,1.4709596037864685,6.799999999999997,0.2267160415649414,15.8,57,48,9
428,0.2812322019182952,0.34691689752716176,0.2644883825492325,0.91275754570961,1.8208724558353424,6.799999999999997,0.2035531997680664,9.2,78,65,13
429,1.6438368920980158,0.6687427032023718,0.7597627548757708,1.1353813409805298,0.5081310411915183,6.499999999999997,0.23550891876220703,15.600000000000001,90,75,15
430,0,0,0,0,0,0,0,0,0,0,0
431,0.4724969355170638,0.2423658510389632,0.2847304385227122,0.96653613448143,1.0,6.499999999999997,0.1959381103515625,13.4,72,59,13
432,1.044169055361146,0.16069065295191062,1.9347752833045404,2.7417283058166504,1.0023288219235837,7.099999999999997,0.16466307640075684,11.9,99,83,16
433,1.8370483759458218,0.5006547124045883,1.2936356194613075,2.0,1.1348692029714584,7.099999999999997,0.2199721336364746,15.3,100,80,20
434,1.5707963267948966,0.38979629647426056,1.1611502181700588,0.8926907554268837,1.8013665676116943,6.799999999999997,0.21824193000793457,12.100000000000001,85,71,14
435,1.2242574623609548,0.1202898823947881,0.2561513825656035,0.9447184838354588,0.5137810707092285,6.499999999999997,0.20494413375854492,14.2,75,61,14
436,0,0,0,0,0,0,0,0,0,0,0
437,0.8318762947484514,0.36826789343663996,0.519146114246523,2.0325220823287964,1.170249879360199,6.799999999999997,0.1516721248626709,20.9,93,75,18
438,1.1999050379822342,0.3046926540153976,0.7066142024083045,0.6736020445823669,1.3803083896636963,6.499999999999997,0.2194349765777588,13.5,80,63,17
439,0.7140906986121581,0,0.8850668158886106,0.8287131786346436,0.9050654768943787,6.1999999999999975,0.21297693252563477,19.799999999999997,83,66,17
